,id,name,review_count,categories,transactions,coordinates,zip_codes,city,state,price
1,7EaiwMVaNdQibSs0yYkE5Q,Sushi Yasuda,2114,"[{'alias': 'japanese', 'title': 'Japanese'}]",[],"{'latitude': 40.75113, 'longitude': -73.97347}",10017,New York,NY,3
2,7iY35991NhQ1AShJZCNZgA,Sakagura,1781,"[{'alias': 'japanese', 'title': 'Japanese'}]",[],"{'latitude': 40.7516467024541, 'longitude': -73.9729489318165}",10017,New York,NY,3
3,xEnNFXtMLDF5kZDxfaCJgA,The Halal Guys,9296,"[{'alias': 'foodstands', 'title': 'Food Stands'}, {'alias': 'mideastern', 'title': 'Middle Eastern'}, {'alias': 'halal', 'title': 'Halal'}]",[],"{'latitude': 40.761854, 'longitude': -73.979363}",10019,New York,NY,1
4,c3eMI4_o4dPDDhPV_ibBYQ,Ess-a-Bagel,3549,"[{'alias': 'bakeries', 'title': 'Bakeries'}, {'alias': 'bagels', 'title': 'Bagels'}, {'alias': 'delis', 'title': 'Delis'}]","['delivery', 'pickup']","{'latitude': 40.756300559255, 'longitude': -73.9703701025162}",10022,New York,NY,1
5,oTkzgr7hzOAdlP99Auj3GQ,Momosan Ramen & Sake,1623,"[{'alias': 'ramen', 'title': 'Ramen'}, {'alias': 'tapasmallplates', 'title': 'Tapas/Small Plates'}]",[],"{'latitude': 40.74993, 'longitude': -73.97746}",10016,New York,NY,2
6,ryvBsB9FrBBZDak87iGS1w,The Seafire Grill,1260,"[{'alias': 'seafood', 'title': 'Seafood'}, {'alias': 'steak', 'title': 'Steakhouses'}, {'alias': 'bars', 'title': 'Bars'}]",[],"{'latitude': 40.7547012104496, 'longitude': -73.972255513072}",10017,New York,NY,3
7,C-8mGN7lt5rIraO5n-15ug,The Smith,2595,"[{'alias': 'newamerican', 'title': 'American (New)'}, {'alias': 'breakfast_brunch', 'title': 'Breakfast & Brunch'}, {'alias': 'cocktailbars', 'title': 'Cocktail Bars'}]","['delivery', 'pickup']","{'latitude': 40.755165, 'longitude': -73.967868}",10022,New York,NY,2
8,j1S3NUrkB3BVT49n_e76NQ,Best Bagel & Coffee,3256,"[{'alias': 'bagels', 'title': 'Bagels'}, {'alias': 'coffee', 'title': 'Coffee & Tea'}, {'alias': 'breakfast_brunch', 'title': 'Breakfast & Brunch'}]",[],"{'latitude': 40.7522683, 'longitude': -73.9910861}",10001,New York,NY,1
9,WHRHK3S1mQc3PmhwsGRvbw,Bibble & Sip,4746,"[{'alias': 'coffee', 'title': 'Coffee & Tea'}, {'alias': 'bakeries', 'title': 'Bakeries'}]",[],"{'latitude': 40.76282, 'longitude': -73.98518}",10019,New York,NY,1
10,lESxFswvOPUFUzj6HsTnqw,Sons of Thunder,760,"[{'alias': 'hotdog', 'title': 'Hot Dogs'}, {'alias': 'poke', 'title': 'Poke'}]","['delivery', 'pickup']","{'latitude': 40.74786, 'longitude': -73.97589}",10016,New York,NY,2
11,cxtg17yy1YFt8gHRckUQcw,Num Pang Kitchen,1122,"[{'alias': 'cambodian', 'title': 'Cambodian'}, {'alias': 'sandwiches', 'title': 'Sandwiches'}]","['delivery', 'pickup']","{'latitude': 40.7503831245874, 'longitude': -73.9761078759491}",10017,New York,NY,2
12,1LIptXhtDh58vAA-QPFL4w,Cask Bar & Kitchen,1345,"[{'alias': 'bars', 'title': 'Bars'}, {'alias': 'newamerican', 'title': 'American (New)'}, {'alias': 'breakfast_brunch', 'title': 'Breakfast & Brunch'}]","['restaurant_reservation', 'delivery', 'pickup']","{'latitude': 40.745414, 'longitude': -73.979004}",10016,New York,NY,2
13,LQHegfNHe7ylY3bocrFlpg,Calle Dao - Bryant Park,1719,"[{'alias': 'cuban', 'title': 'Cuban'}, {'alias': 'cocktailbars', 'title': 'Cocktail Bars'}, {'alias': 'breakfast_brunch', 'title': 'Breakfast & Brunch'}]","['delivery', 'pickup']","{'latitude': 40.7522888979927, 'longitude': -73.9841403450024}",10018,New York,NY,2
14,VvsZAnEwU4c8Xkyrzx05Nw,Anytime,1311,"[{'alias': 'korean', 'title': 'Korean'}, {'alias': 'newamerican', 'title': 'American (New)'}, {'alias': 'tapasmallplates', 'title': 'Tapas/Small Plates'}]",['restaurant_reservation'],"{'latitude': 40.74779, 'longitude': -73.98674}",10001,New York,NY,2
15,sSSV7G16yUijp-Peq4fmsA,Benjamin Steakhouse,1188,"[{'alias': 'steak', 'title': 'Steakhouses'}, {'alias': 'seafood', 'title': 'Seafood'}]",['delivery'],"{'latitude': 40.7518, 'longitude': -73.97896}",10017,New York,NY,4
16,A_YpTLbAlEqeLVSs9bxbEA,Club A Steakhouse,2761,"[{'alias': 'steak', 'title': 'Steakhouses'}]",[],"{'latitude': 40.76006, 'longitude': -73.96557}",10022,New York,NY,3
17,FEVQpbOPOwAPNIgO7D3xxw,Shake Shack,5565,"[{'alias': 'burgers', 'title': 'Burgers'}, {'alias': 'foodstands', 'title': 'Food Stands'}, {'alias': 'icecream', 'title': 'Ice Cream & Frozen Yogurt'}]",['delivery'],"{'latitude': 40.7414000197233, 'longitude': -73.98815019045}",10010,New York,NY,2
18,OFfZUS-nu6NDnsWe1B2bUQ,TONCHIN NEW YORK,1123,"[{'alias': 'ramen', 'title': 'Ramen'}, {'alias': 'izakaya', 'title': 'Izakaya'}]",['restaurant_reservation'],"{'latitude': 40.7502727, 'longitude': -73.9844951}",10018,New York,NY,2
20,veq1Bl1DW3UWMekZJUsG1Q,Gramercy Tavern,2873,"[{'alias': 'newamerican', 'title': 'American (New)'}]",[],"{'latitude': 40.738527, 'longitude': -73.988417}",10003,New York,NY,4
21,vRrVSB-LegwUwIxpkeRVtQ,Le Bernardin,2520,"[{'alias': 'french', 'title': 'French'}, {'alias': 'lounges', 'title': 'Lounges'}]",[],"{'latitude': 40.761557, 'longitude': -73.981763}",10019,New York,NY,4
22,44SY464xDHbvOcjDzRbKkQ,Ippudo NY,9948,"[{'alias': 'ramen', 'title': 'Ramen'}]","['delivery', 'pickup']","{'latitude': 40.73092, 'longitude': -73.99015}",10003,New York,NY,2
23,klAhw3xLQi9GF1tf_HnS7w,Izakaya MEW,2270,"[{'alias': 'tapas', 'title': 'Tapas Bars'}, {'alias': 'sushi', 'title': 'Sushi Bars'}, {'alias': 'izakaya', 'title': 'Izakaya'}]","['delivery', 'pickup']","{'latitude': 40.7501853096499, 'longitude': -73.9863203465939}",10001,New York,NY,2
24,b8a-8u_A51v2IzyjLVsx6w,Del Frisco's Double Eagle Steakhouse,2955,"[{'alias': 'steak', 'title': 'Steakhouses'}, {'alias': 'newamerican', 'title': 'American (New)'}, {'alias': 'seafood', 'title': 'Seafood'}]",[],"{'latitude': 40.759412, 'longitude': -73.982221}",10020,New York,NY,4
25,SULHf6nGQ8sK0UpG1XU30w,Los Tacos No.1,1695,"[{'alias': 'tacos', 'title': 'Tacos'}]",[],"{'latitude': 40.7575067, 'longitude': -73.9877717}",10036,New York,NY,1
26,6lUsFj0KCao678o9L7QwUw,Hatsuhana Sushi Restaurant,1322,"[{'alias': 'japanese', 'title': 'Japanese'}, {'alias': 'sushi', 'title': 'Sushi Bars'}]","['restaurant_reservation', 'delivery', 'pickup']","{'latitude': 40.75703, 'longitude': -73.97692}",10017,New York,NY,3
27,qY1o1MhoRyN84RRhUJtvpQ,Her Name Is Han,1179,"[{'alias': 'korean', 'title': 'Korean'}, {'alias': 'breakfast_brunch', 'title': 'Breakfast & Brunch'}, {'alias': 'cocktailbars', 'title': 'Cocktail Bars'}]","['delivery', 'pickup']","{'latitude': 40.74626, 'longitude': -73.98473}",10016,New York,NY,2
28,B3_K2kUVbYOU0VaLcj_LTw,Thai Villa,3275,"[{'alias': 'thai', 'title': 'Thai'}, {'alias': 'asianfusion', 'title': 'Asian Fusion'}]","['delivery', 'pickup']","{'latitude': 40.73902, 'longitude': -73.99065}",10003,New York,NY,2
29,MKYhiSeXjahxh9O4Gqnimw,Grace Street,2443,"[{'alias': 'coffee', 'title': 'Coffee & Tea'}, {'alias': 'desserts', 'title': 'Desserts'}, {'alias': 'shavedice', 'title': 'Shaved Ice'}]",[],"{'latitude': 40.7478576793883, 'longitude': -73.9865590631962}",10001,New York,NY,2
30,nRO136GRieGtxz18uD61DA,Eleven Madison Park,2168,"[{'alias': 'newamerican', 'title': 'American (New)'}, {'alias': 'french', 'title': 'French'}, {'alias': 'cocktailbars', 'title': 'Cocktail Bars'}]",[],"{'latitude': 40.7416907417333, 'longitude': -73.9872074872255}",10010,New York,NY,4
31,UA2M9QFZghe-9th2KwLoWQ,Burger & Lobster,5417,"[{'alias': 'seafood', 'title': 'Seafood'}, {'alias': 'burgers', 'title': 'Burgers'}, {'alias': 'newamerican', 'title': 'American (New)'}]","['restaurant_reservation', 'delivery', 'pickup']","{'latitude': 40.74007, 'longitude': -73.99344}",10011,New York,NY,2
32,kctef59qqlzJNqAc1ZGEvg,The Capital Grille,804,"[{'alias': 'steak', 'title': 'Steakhouses'}, {'alias': 'seafood', 'title': 'Seafood'}, {'alias': 'wine_bars', 'title': 'Wine Bars'}]",[],"{'latitude': 40.75114, 'longitude': -73.97491}",10017,New York,NY,3
33,xZ96vaoL-cQjfotmUKtjJQ,Barn Joo 35,1972,"[{'alias': 'korean', 'title': 'Korean'}, {'alias': 'gastropubs', 'title': 'Gastropubs'}, {'alias': 'tapasmallplates', 'title': 'Tapas/Small Plates'}]","['restaurant_reservation', 'delivery', 'pickup']","{'latitude': 40.74964, 'longitude': -73.98582}",10001,New York,NY,2
34,bEXTA_Gwo2oVg4gnFd9fNA,Ai Fiori,1250,"[{'alias': 'italian', 'title': 'Italian'}, {'alias': 'french', 'title': 'French'}, {'alias': 'cocktailbars', 'title': 'Cocktail Bars'}]",[],"{'latitude': 40.7500752, 'longitude': -73.9837835}",10018,New York,NY,4
35,pQuZDnefX038xurT1BhDXA,Keens Steakhouse,2539,"[{'alias': 'steak', 'title': 'Steakhouses'}, {'alias': 'desserts', 'title': 'Desserts'}, {'alias': 'pubs', 'title': 'Pubs'}]",[],"{'latitude': 40.75071, 'longitude': -73.98652}",10018,New York,NY,4
36,csVEpHy5KJoFvM1qp5XwLQ,Le Parisien,964,"[{'alias': 'french', 'title': 'French'}, {'alias': 'salad', 'title': 'Salad'}, {'alias': 'breakfast_brunch', 'title': 'Breakfast & Brunch'}]",['restaurant_reservation'],"{'latitude': 40.7454079308793, 'longitude': -73.9791478306885}",10016,New York,NY,2
37,jNRT5vY1Hvp5WDTaHy4Mhw,Sarge's Delicatessen & Diner,1138,"[{'alias': 'delis', 'title': 'Delis'}, {'alias': 'sandwiches', 'title': 'Sandwiches'}, {'alias': 'breakfast_brunch', 'title': 'Breakfast & Brunch'}]","['delivery', 'pickup']","{'latitude': 40.7473279523583, 'longitude': -73.9772017867971}",10016,New York,NY,2
39,a0IET3_yCFcO36OqGSsisg,Eataly NYC Flatiron,5471,"[{'alias': 'italian', 'title': 'Italian'}, {'alias': 'grocery', 'title': 'Grocery'}, {'alias': 'cafes', 'title': 'Cafes'}]",[],"{'latitude': 40.74195877796, 'longitude': -73.989716662832}",10010,New York,NY,2
41,bJgl6cDIBIMlgrntQbxt1g,Tomiz,1183,"[{'alias': 'japanese', 'title': 'Japanese'}, {'alias': 'desserts', 'title': 'Desserts'}, {'alias': 'cafes', 'title': 'Cafes'}]","['delivery', 'pickup']","{'latitude': 40.7523, 'longitude': -73.98043}",10017,New York,NY,1
42,xq0cX_DgxiJMXwhmEl9kUA,Café China,1608,"[{'alias': 'szechuan', 'title': 'Szechuan'}]","['restaurant_reservation', 'delivery', 'pickup']","{'latitude': 40.7499225208569, 'longitude': -73.9819464127197}",10016,New York,NY,2
43,xiwnLiNhSlEN4CDcurqsLQ,2nd Ave Deli,1215,"[{'alias': 'delis', 'title': 'Delis'}, {'alias': 'kosher', 'title': 'Kosher'}, {'alias': 'sandwiches', 'title': 'Sandwiches'}]","['delivery', 'pickup']","{'latitude': 40.74519, 'longitude': -73.97918}",10016,New York,NY,2
44,U5hCNNyJmb7f3dmC1HTzSQ,Junior's Restaurant & Bakery - 45th St.,4587,"[{'alias': 'bakeries', 'title': 'Bakeries'}, {'alias': 'breakfast_brunch', 'title': 'Breakfast & Brunch'}, {'alias': 'burgers', 'title': 'Burgers'}]","['delivery', 'pickup']","{'latitude': 40.7582662685627, 'longitude': -73.98654}",10036,New York,NY,2
45,Ms1p17KsYteDlkvHnllC2g,Soba Totto,897,"[{'alias': 'japanese', 'title': 'Japanese'}, {'alias': 'salad', 'title': 'Salad'}, {'alias': 'bars', 'title': 'Bars'}]","['delivery', 'pickup']","{'latitude': 40.75122, 'longitude': -73.97317}",10017,New York,NY,2
46,xWUL-j6TQyKQHIfOtetu-Q,HanGawi,1153,"[{'alias': 'vegetarian', 'title': 'Vegetarian'}, {'alias': 'korean', 'title': 'Korean'}, {'alias': 'vegan', 'title': 'Vegan'}]",[],"{'latitude': 40.746737, 'longitude': -73.984662}",10016,New York,NY,3
47,dtk1Cstz5MHr-B1AOM_nXA,Gyu-Kaku Japanese BBQ,1181,"[{'alias': 'japanese', 'title': 'Japanese'}, {'alias': 'bbq', 'title': 'Barbeque'}, {'alias': 'asianfusion', 'title': 'Asian Fusion'}]",[],"{'latitude': 40.75537, 'longitude': -73.97054}",10022,New York,NY,3
48,J38XGzriEkMsDfCMt6et_g,Vezzo,1282,"[{'alias': 'pizza', 'title': 'Pizza'}, {'alias': 'pastashops', 'title': 'Pasta Shops'}]","['delivery', 'pickup']","{'latitude': 40.7445, 'longitude': -73.98139}",10016,New York,NY,2
49,ogCC-lJJYnwXDvKGmKZ6Sw,Woorijip,2616,"[{'alias': 'korean', 'title': 'Korean'}]",[],"{'latitude': 40.74747, 'longitude': -73.98648}",10001,New York,NY,1
50,f7i6LxdwbDXExDn_58tXaA,The Ginger Man,1355,"[{'alias': 'bars', 'title': 'Bars'}, {'alias': 'breweries', 'title': 'Breweries'}]",[],"{'latitude': 40.749459, 'longitude': -73.982743}",10016,New York,NY,2
51,raqwXUBlnc0e8c7CYmxEJQ,Scarpetta,1898,"[{'alias': 'italian', 'title': 'Italian'}]",[],"{'latitude': 40.744509, 'longitude': -73.9856}",10016,New York,NY,3
52,22nKUyCIbpnzR6R3_g1ptQ,Carmine's Italian Restaurant - Times Square,3751,"[{'alias': 'italian', 'title': 'Italian'}, {'alias': 'catering', 'title': 'Caterers'}, {'alias': 'venues', 'title': 'Venues & Event Spaces'}]","['delivery', 'pickup']","{'latitude': 40.7574955824307, 'longitude': -73.9866844540098}",10036,New York,NY,2
53,FZpm4_fbd6P984foOUejWg,Jongro BBQ,1925,"[{'alias': 'korean', 'title': 'Korean'}, {'alias': 'bbq', 'title': 'Barbeque'}, {'alias': 'beerbar', 'title': 'Beer Bar'}]",[],"{'latitude': 40.747514, 'longitude': -73.986884}",10001,New York,NY,2
54,QAGFu7pqCAZUJkYkUB5pjg,Urbanspace Vanderbilt,656,"[{'alias': 'food_court', 'title': 'Food Court'}]","['delivery', 'pickup']","{'latitude': 40.754623, 'longitude': -73.976605}",10169,New York,NY,2
55,jjJc_CrkB2HodEinB6cWww,LoveMama,4917,"[{'alias': 'thai', 'title': 'Thai'}, {'alias': 'malaysian', 'title': 'Malaysian'}, {'alias': 'vietnamese', 'title': 'Vietnamese'}]","['restaurant_reservation', 'delivery', 'pickup']","{'latitude': 40.7303859, 'longitude': -73.9860613}",10003,New York,NY,2
56,mESab-FqL5QqSVsnX72asQ,Zen Ramen & Sushi,1624,"[{'alias': 'sushi', 'title': 'Sushi Bars'}, {'alias': 'ramen', 'title': 'Ramen'}, {'alias': 'salad', 'title': 'Salad'}]","['delivery', 'pickup']","{'latitude': 40.75185, 'longitude': -73.98892}",10018,New York,NY,2
57,x0k5kFArHLijdY8-NEQ7Xg,Bengal Tiger Indian Food,1871,"[{'alias': 'indpak', 'title': 'Indian'}]","['delivery', 'pickup']","{'latitude': 40.763167, 'longitude': -73.977131}",10019,New York,NY,2
58,TN4RnyqHMSupRFot4Q-_EA,Ippudo Westside,3653,"[{'alias': 'ramen', 'title': 'Ramen'}]",[],"{'latitude': 40.76344, 'longitude': -73.98661}",10019,New York,NY,2
59,NwrqmFGO-utVOG-eeDDuXg,Penelope,2115,"[{'alias': 'tradamerican', 'title': 'American (Traditional)'}, {'alias': 'breakfast_brunch', 'title': 'Breakfast & Brunch'}, {'alias': 'newamerican', 'title': 'American (New)'}]","['delivery', 'pickup']","{'latitude': 40.74371, 'longitude': -73.98152}",10016,New York,NY,2
60,Ucxhqn56VtC-eYjdNsg7Og,Vitae,778,"[{'alias': 'newamerican', 'title': 'American (New)'}, {'alias': 'wine_bars', 'title': 'Wine Bars'}, {'alias': 'venues', 'title': 'Venues & Event Spaces'}]","['delivery', 'pickup']","{'latitude': 40.7555884, 'longitude': -73.9785483}",10017,New York,NY,3
61,1u_vkRFPuT8Aeh7Zk3bKyw,Galata Mediterranean Cuisine,348,"[{'alias': 'turkish', 'title': 'Turkish'}, {'alias': 'mediterranean', 'title': 'Mediterranean'}, {'alias': 'halal', 'title': 'Halal'}]","['delivery', 'pickup']","{'latitude': 40.74531, 'longitude': -73.97753}",10016,New York,NY,2
62,B55Ocx5RBWxo6AGSucYSIA,ilili,2377,"[{'alias': 'mediterranean', 'title': 'Mediterranean'}, {'alias': 'lebanese', 'title': 'Lebanese'}, {'alias': 'cocktailbars', 'title': 'Cocktail Bars'}]","['delivery', 'pickup']","{'latitude': 40.74435, 'longitude': -73.98778}",10001,New York,NY,3
63,ev6e12vhY_0y4qE1cRhv0A,Udon West Midtown,1019,"[{'alias': 'japanese', 'title': 'Japanese'}, {'alias': 'noodles', 'title': 'Noodles'}]",[],"{'latitude': 40.7535446865563, 'longitude': -73.9735724478504}",10017,New York,NY,2
64,5TX0X8w5ssIACU_pnBEq6g,Tony's Di Napoli,2075,"[{'alias': 'italian', 'title': 'Italian'}]","['delivery', 'pickup']","{'latitude': 40.75641, 'longitude': -73.98547}",10036,New York,NY,2
65,TBp9gdS6xEbSQqffVZ7iag,KazuNori  | The Original Hand Roll Bar,909,"[{'alias': 'sushi', 'title': 'Sushi Bars'}, {'alias': 'japanese', 'title': 'Japanese'}]",[],"{'latitude': 40.74519, 'longitude': -73.98824}",10001,New York,NY,2
66,_FhKGcCbiYgtkXcCiwTAiA,Aburiya Kinnosuke,749,"[{'alias': 'tapasmallplates', 'title': 'Tapas/Small Plates'}, {'alias': 'izakaya', 'title': 'Izakaya'}]",[],"{'latitude': 40.752583, 'longitude': -73.972274}",10017,New York,NY,3
67,z7H9ApIGopnDnQaglnPTzg,Allora Ristorante,564,"[{'alias': 'italian', 'title': 'Italian'}, {'alias': 'bars', 'title': 'Bars'}]",['restaurant_reservation'],"{'latitude': 40.75433, 'longitude': -73.97277}",10017,New York,NY,3
68,xHBpwGzxxbC3vTahHWdABg,Perk Kafe,388,"[{'alias': 'coffee', 'title': 'Coffee & Tea'}, {'alias': 'bakeries', 'title': 'Bakeries'}]",[],"{'latitude': 40.747764735907, 'longitude': -73.9770407671092}",10016,New York,NY,1
69,BZcG-xN3DCxlfhckBZYeuw,Pio Pio 7,817,"[{'alias': 'latin', 'title': 'Latin American'}, {'alias': 'peruvian', 'title': 'Peruvian'}]","['delivery', 'pickup']","{'latitude': 40.74534, 'longitude': -73.97761}",10016,New York,NY,2
71,-J8VuX3wGrYSOBu2G0hMsw,Katsu-Hama,1308,"[{'alias': 'japanese', 'title': 'Japanese'}]","['pickup', 'delivery', 'restaurant_reservation']","{'latitude': 40.75638, 'longitude': -73.97759}",10017,New York,NY,2
72,QbAfrOxbuYKU248SDXHZEQ,Totto Ramen,5444,"[{'alias': 'ramen', 'title': 'Ramen'}]",[],"{'latitude': 40.76444, 'longitude': -73.98759}",10019,New York,NY,2
73,LjBKkUSpMwrpo99hXgtHYw,Franchia Vegan Cafe,917,"[{'alias': 'korean', 'title': 'Korean'}, {'alias': 'vegan', 'title': 'Vegan'}, {'alias': 'asianfusion', 'title': 'Asian Fusion'}]","['delivery', 'pickup']","{'latitude': 40.7474712051298, 'longitude': -73.9812423408763}",10016,New York,NY,2
74,dYm7DXMy1r8kCmKiz1MO8w,Crave Fishbar,716,"[{'alias': 'seafood', 'title': 'Seafood'}, {'alias': 'desserts', 'title': 'Desserts'}, {'alias': 'bars', 'title': 'Bars'}]","['delivery', 'pickup']","{'latitude': 40.755136, 'longitude': -73.968683}",10022,New York,NY,3
75,HScFap2SwbUlfC-QXVkxFA,Xi'an Famous Foods,1682,"[{'alias': 'chinese', 'title': 'Chinese'}, {'alias': 'burgers', 'title': 'Burgers'}, {'alias': 'noodles', 'title': 'Noodles'}]",[],"{'latitude': 40.755136, 'longitude': -73.982194}",10036,New York,NY,1
76,sSQ3dtC8nbfeT6srFiiIlA,Stumptown Coffee Roasters,1398,"[{'alias': 'coffee', 'title': 'Coffee & Tea'}, {'alias': 'coffeeroasteries', 'title': 'Coffee Roasteries'}]",[],"{'latitude': 40.7456663381275, 'longitude': -73.9880916348562}",10001,New York,NY,2
77,dMhRafXdr765DHe0k-QfaQ,ABC Kitchen,2962,"[{'alias': 'newamerican', 'title': 'American (New)'}, {'alias': 'french', 'title': 'French'}]",[],"{'latitude': 40.738085, 'longitude': -73.989472}",10003,New York,NY,3
78,Hh9glEE_xDYT_pPUsRPXlA,Blend on the Water,3116,"[{'alias': 'latin', 'title': 'Latin American'}, {'alias': 'breakfast_brunch', 'title': 'Breakfast & Brunch'}, {'alias': 'lounges', 'title': 'Lounges'}]",['pickup'],"{'latitude': 40.7479520761447, 'longitude': -73.9570822404376}",11109,Long Island City,NY,2
79,2IHGMQVQ7zmb89WyiiH1AQ,Zengo,1029,"[{'alias': 'latin', 'title': 'Latin American'}, {'alias': 'asianfusion', 'title': 'Asian Fusion'}]",[],"{'latitude': 40.749757387679, 'longitude': -73.975456614573}",10017,New York,NY,3
80,IGZkGbwE36iE1yaDW5NNKA,The Flying Cock,542,"[{'alias': 'pubs', 'title': 'Pubs'}, {'alias': 'breakfast_brunch', 'title': 'Breakfast & Brunch'}]",['restaurant_reservation'],"{'latitude': 40.745296, 'longitude': -73.978073}",10016,New York,NY,2
81,ikb5lhHmb2xndNZM-jr_Mw,Wolfgang's Steakhouse,961,"[{'alias': 'steak', 'title': 'Steakhouses'}]",[],"{'latitude': 40.7466818653462, 'longitude': -73.9820571484794}",10016,New York,NY,4
82,1z5Nu66M6W8mk5Ap4osZwA,The NoMad Restaurant,1463,"[{'alias': 'french', 'title': 'French'}, {'alias': 'newamerican', 'title': 'American (New)'}, {'alias': 'gastropubs', 'title': 'Gastropubs'}]",[],"{'latitude': 40.7449, 'longitude': -73.988482}",10001,New York,NY,3
83,xe9qWNyYmsRvNGRPgW-ZcA,Dons Bogam BBQ & Wine Bar,990,"[{'alias': 'korean', 'title': 'Korean'}, {'alias': 'bbq', 'title': 'Barbeque'}, {'alias': 'wine_bars', 'title': 'Wine Bars'}]",[],"{'latitude': 40.74678, 'longitude': -73.98437}",10016,New York,NY,3
84,gXnC_aZR09BvqEQKGKFjBg,BCD Tofu House,2007,"[{'alias': 'korean', 'title': 'Korean'}]",[],"{'latitude': 40.747503631444, 'longitude': -73.9862447208321}",10001,New York,NY,2
85,Va_mnsEvBghHXvc7uZIWJQ,Spice Symphony,592,"[{'alias': 'indpak', 'title': 'Indian'}, {'alias': 'chinese', 'title': 'Chinese'}, {'alias': 'salad', 'title': 'Salad'}]","['delivery', 'pickup']","{'latitude': 40.744722, 'longitude': -73.981202}",10016,New York,NY,2
86,LHxZgTddXIp_S1sL3nNG9w,Park Avenue Tavern,755,"[{'alias': 'tradamerican', 'title': 'American (Traditional)'}, {'alias': 'cocktailbars', 'title': 'Cocktail Bars'}, {'alias': 'salad', 'title': 'Salad'}]","['delivery', 'pickup']","{'latitude': 40.75031, 'longitude': -73.9783999}",10016,New York,NY,2
87,oAFaJmLbqnpgIqHP2YAywg,The Campbell,889,"[{'alias': 'cocktailbars', 'title': 'Cocktail Bars'}, {'alias': 'lounges', 'title': 'Lounges'}]",[],"{'latitude': 40.752758, 'longitude': -73.977914}",10017,New York,NY,3
88,_zGsfwGAY8ZTob_mIFAM-w,Pokeworks,1743,"[{'alias': 'sushi', 'title': 'Sushi Bars'}, {'alias': 'poke', 'title': 'Poke'}, {'alias': 'salad', 'title': 'Salad'}]","['delivery', 'pickup']","{'latitude': 40.7515934305237, 'longitude': -73.98588180542}",10018,New York,NY,2
89,SaYTVG7wHCMDBofHCgXPaA,Dutch Freds,1548,"[{'alias': 'cocktailbars', 'title': 'Cocktail Bars'}, {'alias': 'newamerican', 'title': 'American (New)'}, {'alias': 'breakfast_brunch', 'title': 'Breakfast & Brunch'}]",[],"{'latitude': 40.760835, 'longitude': -73.987823}",10036,New York,NY,2
90,DZaN3bNWfwcm__sNw5bvDg,Daniel,1580,"[{'alias': 'french', 'title': 'French'}, {'alias': 'tradamerican', 'title': 'American (Traditional)'}, {'alias': 'cocktailbars', 'title': 'Cocktail Bars'}]",[],"{'latitude': 40.7667736797858, 'longitude': -73.967607}",10065,New York,NY,4
91,diz6_4TVSP6EdWEZCZ0Acg,Kaoru,330,"[{'alias': 'japanese', 'title': 'Japanese'}]",[],"{'latitude': 40.75202, 'longitude': -73.96977}",10017,New York,NY,2
92,9bAyxRD6RsGEUQw424ovQA,Nishida Sho-ten,762,"[{'alias': 'ramen', 'title': 'Ramen'}]","['delivery', 'pickup']","{'latitude': 40.753969, 'longitude': -73.968722}",10017,New York,NY,2
93,U3Ueh2bHtp3DLjrdc5w5fQ,Remi Flower & Coffee,263,"[{'alias': 'coffee', 'title': 'Coffee & Tea'}, {'alias': 'florists', 'title': 'Florists'}]",[],"{'latitude': 40.753781, 'longitude': -73.9689989}",10017,New York,NY,2
94,1nR3kKOs938gcgnw6p5wjg,Sinigual,854,"[{'alias': 'mexican', 'title': 'Mexican'}, {'alias': 'bars', 'title': 'Bars'}]","['delivery', 'pickup']","{'latitude': 40.7503161990978, 'longitude': -73.9750733399726}",10017,New York,NY,2
95,pDwhlX9jNBGnjvyGR9jYWQ,Gabriel Kreuther,422,"[{'alias': 'lounges', 'title': 'Lounges'}, {'alias': 'french', 'title': 'French'}]",[],"{'latitude': 40.754546, 'longitude': -73.982556}",10036,New York,NY,4
96,srhEv1OqoK9W5JRdiMWDyw,Ayza Wine & Chocolate Bar,1663,"[{'alias': 'wine_bars', 'title': 'Wine Bars'}, {'alias': 'desserts', 'title': 'Desserts'}, {'alias': 'mediterranean', 'title': 'Mediterranean'}]",['restaurant_reservation'],"{'latitude': 40.7471774721074, 'longitude': -73.987011312828}",10001,New York,NY,2
97,MmXZLVwWcYugi_TXSHmjeQ,Sushi by Bou Times Square,573,"[{'alias': 'sushi', 'title': 'Sushi Bars'}, {'alias': 'japanese', 'title': 'Japanese'}]",['restaurant_reservation'],"{'latitude': 40.75851, 'longitude': -73.98322}",10036,New York,NY,3
98,A-ert0jDRBfku9ogyW_mEg,Spice Symphony,469,"[{'alias': 'chinese', 'title': 'Chinese'}, {'alias': 'indpak', 'title': 'Indian'}, {'alias': 'breakfast_brunch', 'title': 'Breakfast & Brunch'}]","['delivery', 'pickup']","{'latitude': 40.7558937072754, 'longitude': -73.9715347290039}",10022,New York,NY,2
99,UB1mGugr1pvgUUP1eTNXrg,Stone Bridge Pizza & Salad,270,"[{'alias': 'pizza', 'title': 'Pizza'}, {'alias': 'salad', 'title': 'Salad'}, {'alias': 'fooddeliveryservices', 'title': 'Food Delivery Services'}]","['delivery', 'pickup']","{'latitude': 40.75225, 'longitude': -73.98061}",10017,New York,NY,2
100,3qIISjUYn1tbqHXi7nCLXg,Sofia Wine Bar,641,"[{'alias': 'italian', 'title': 'Italian'}, {'alias': 'wine_bars', 'title': 'Wine Bars'}]","['delivery', 'pickup']","{'latitude': 40.75502, 'longitude': -73.96913}",10022,New York,NY,2
101,RjeW_l8OF99rn5df5-Rj4g,Totto Ramen - Midtown East,1134,"[{'alias': 'ramen', 'title': 'Ramen'}]","['delivery', 'pickup']","{'latitude': 40.7562184833974, 'longitude': -73.9679722894107}",10022,New York,NY,2
102,cCesIqo-LQt0cRlZAnrAZQ,Friedman's,2415,"[{'alias': 'newamerican', 'title': 'American (New)'}, {'alias': 'gluten_free', 'title': 'Gluten-Free'}, {'alias': 'breakfast_brunch', 'title': 'Breakfast & Brunch'}]","['delivery', 'pickup']","{'latitude': 40.748297, 'longitude': -73.990649}",10001,New York,NY,2
103,JeCtYANe0eqW8xe1SN3lWg,Turntable Chicken Jazz,2013,"[{'alias': 'chicken_wings', 'title': 'Chicken Wings'}, {'alias': 'bars', 'title': 'Bars'}, {'alias': 'korean', 'title': 'Korean'}]",[],"{'latitude': 40.74828, 'longitude': -73.98649}",10001,New York,NY,2
104,qiw9Kgsu5YVGrQL_OeDmcQ,Hide-Chan Ramen,1323,"[{'alias': 'ramen', 'title': 'Ramen'}]","['delivery', 'pickup']","{'latitude': 40.75613, 'longitude': -73.9682}",10022,New York,NY,2
105,F89nDDlYZ7wbRe8EpLCqBw,Avra Estiatorio,860,"[{'alias': 'seafood', 'title': 'Seafood'}, {'alias': 'greek', 'title': 'Greek'}, {'alias': 'mediterranean', 'title': 'Mediterranean'}]",[],"{'latitude': 40.75513, 'longitude': -73.97245}",10017,New York,NY,3
106,ESREfCxyY9A1Wetnk47xJQ,Duke's,839,"[{'alias': 'southern', 'title': 'Southern'}, {'alias': 'tradamerican', 'title': 'American (Traditional)'}, {'alias': 'bars', 'title': 'Bars'}]","['delivery', 'pickup']","{'latitude': 40.748089, 'longitude': -73.976864}",10016,New York,NY,2
107,ZpMOiRtDoSjbhiYYTHezMg,Luke's Lobster Midtown East,341,"[{'alias': 'seafood', 'title': 'Seafood'}]","['delivery', 'pickup']","{'latitude': 40.7512787394311, 'longitude': -73.9732972159982}",10017,New York,NY,2
108,KHdYPT0jUnUGdHGaY73mxg,Sukhumvit 51,730,"[{'alias': 'thai', 'title': 'Thai'}]","['delivery', 'pickup']","{'latitude': 40.7559139831703, 'longitude': -73.9693867939228}",10022,New York,NY,2
109,IjQ2yGUKkvP0JIldT9vRFQ,Take31,580,"[{'alias': 'korean', 'title': 'Korean'}, {'alias': 'gastropubs', 'title': 'Gastropubs'}, {'alias': 'breakfast_brunch', 'title': 'Breakfast & Brunch'}]",['delivery'],"{'latitude': 40.7463, 'longitude': -73.984809}",10016,New York,NY,2
110,VGTrGSH38A4n-v5nFe4skA,Uncle Gussy's,454,"[{'alias': 'foodtrucks', 'title': 'Food Trucks'}, {'alias': 'greek', 'title': 'Greek'}]","['delivery', 'pickup']","{'latitude': 40.7576813278964, 'longitude': -73.9732953737526}",10154,New York,NY,1
111,KJTTqIxuB0BEsYxLaYyAZw,Tonkatsu Matsunoya,393,"[{'alias': 'japanese', 'title': 'Japanese'}]","['pickup', 'delivery', 'restaurant_reservation']","{'latitude': 40.7533493041992, 'longitude': -73.9741592407227}",10017,New York,NY,2
112,cnMNL1O_dVtCdTyQwwOwOQ,Bistango,691,"[{'alias': 'italian', 'title': 'Italian'}, {'alias': 'bars', 'title': 'Bars'}]","['delivery', 'pickup']","{'latitude': 40.7425771, 'longitude': -73.9800892}",10016,New York,NY,2
113,XTSScqbNujYlE7c_nHmS1g,DiSO's Italian Sandwich Society,253,"[{'alias': 'foodtrucks', 'title': 'Food Trucks'}, {'alias': 'italian', 'title': 'Italian'}, {'alias': 'sandwiches', 'title': 'Sandwiches'}]",['delivery'],"{'latitude': 40.7527323302057, 'longitude': -73.9705090608521}",10017,New York,NY,2
114,DoSU8IPq-Py_YV3kYmXPfQ,Trattoria Trecolori,2328,"[{'alias': 'italian', 'title': 'Italian'}]","['delivery', 'pickup']","{'latitude': 40.75998, 'longitude': -73.98671}",10036,New York,NY,2
115,hyveq4QHwx31tKKVZfkPOw,Ippodo Tea,198,"[{'alias': 'tea', 'title': 'Tea Rooms'}]",[],"{'latitude': 40.7498614, 'longitude': -73.9777215}",10016,New York,NY,2
116,vVVmHacu2YAxKfpIjhfd1g,NORMA Gastronomia Siciliana,372,"[{'alias': 'italian', 'title': 'Italian'}, {'alias': 'pizza', 'title': 'Pizza'}]","['delivery', 'pickup']","{'latitude': 40.743553, 'longitude': -73.980026}",10016,New York,NY,2
117,kwqOmEwWJ0D9PyCdFGE3-g,Xian Famous Foods,738,"[{'alias': 'chinese', 'title': 'Chinese'}, {'alias': 'noodles', 'title': 'Noodles'}, {'alias': 'burgers', 'title': 'Burgers'}]",[],"{'latitude': 40.747844, 'longitude': -73.983901}",10016,New York,NY,2
119,urSuhjbH6DK2nvP08IESwA,The Cinnamon Snail,1078,"[{'alias': 'vegan', 'title': 'Vegan'}, {'alias': 'foodtrucks', 'title': 'Food Trucks'}]","['delivery', 'pickup']","{'latitude': 40.75007, 'longitude': -73.992215}",10121,New York,NY,1
120,-9NO2IDCJMyNGZMAQ1-VQw,NY Pizza Suprema,1993,"[{'alias': 'pizza', 'title': 'Pizza'}]","['delivery', 'pickup']","{'latitude': 40.7502059936523, 'longitude': -73.9953231811523}",10001,New York,NY,1
121,RdETxi25tbocKIcMiW5TxQ,Darbar Fine Indian Cuisine,565,"[{'alias': 'indpak', 'title': 'Indian'}, {'alias': 'buffets', 'title': 'Buffets'}, {'alias': 'bars', 'title': 'Bars'}]","['delivery', 'pickup', 'restaurant_reservation']","{'latitude': 40.75358, 'longitude': -73.97348}",10017,New York,NY,2
122,YHGGyH4hn_5UyV1rWgA5hg,Tommy Bahama Restaurant | Bar | Store - New York,596,"[{'alias': 'newamerican', 'title': 'American (New)'}, {'alias': 'seafood', 'title': 'Seafood'}, {'alias': 'cocktailbars', 'title': 'Cocktail Bars'}]",[],"{'latitude': 40.7553882217953, 'longitude': -73.9792002147005}",10176,New York,NY,3
123,_LJFf9YqpYxvExTvVxb7Rw,The Modern,996,"[{'alias': 'newamerican', 'title': 'American (New)'}]",[],"{'latitude': 40.7610060884932, 'longitude': -73.9767725608521}",10019,New York,NY,4
124,XskangHFq3JD9klJFuGH8w,Doughnut Plant,2487,"[{'alias': 'donuts', 'title': 'Donuts'}, {'alias': 'coffee', 'title': 'Coffee & Tea'}]","['delivery', 'pickup']","{'latitude': 40.7444886, 'longitude': -73.9969095}",10011,New York,NY,2
125,1DfbZ0VsSCg9g1KILmnvzQ,Per Se,1650,"[{'alias': 'french', 'title': 'French'}]",[],"{'latitude': 40.7681528889558, 'longitude': -73.9827629623657}",10019,New York,NY,4
126,IOHaEgK1zDvUvB3SfKuGCw,Parker & Quinn,1343,"[{'alias': 'newamerican', 'title': 'American (New)'}, {'alias': 'bars', 'title': 'Bars'}, {'alias': 'breakfast_brunch', 'title': 'Breakfast & Brunch'}]","['delivery', 'pickup']","{'latitude': 40.7525862175813, 'longitude': -73.9850713153442}",10018,New York,NY,2
127,zR92VSkXj1rt5KTJ15bkAw,Benjamin Prime,286,"[{'alias': 'steak', 'title': 'Steakhouses'}]",[],"{'latitude': 40.7514936031, 'longitude': -73.9798496845097}",10016,New York,NY,4
128,1aD88qNRb08LGBkl84GQTA,Little Collins,817,"[{'alias': 'coffee', 'title': 'Coffee & Tea'}, {'alias': 'breakfast_brunch', 'title': 'Breakfast & Brunch'}, {'alias': 'sandwiches', 'title': 'Sandwiches'}]","['delivery', 'pickup']","{'latitude': 40.759912, 'longitude': -73.96964}",10022,New York,NY,2
129,Rc1lxc5lSKJYd162JHNMfQ,Bea,2478,"[{'alias': 'newamerican', 'title': 'American (New)'}, {'alias': 'cocktailbars', 'title': 'Cocktail Bars'}]",['restaurant_reservation'],"{'latitude': 40.7591968, 'longitude': -73.9923361}",10036,New York,NY,2
130,-udRA8VRsQJoIaT-kxCrGg,Ipanema Restaurant,1372,"[{'alias': 'brazilian', 'title': 'Brazilian'}, {'alias': 'portuguese', 'title': 'Portuguese'}, {'alias': 'steak', 'title': 'Steakhouses'}]","['pickup', 'restaurant_reservation']","{'latitude': 40.757072217349, 'longitude': -73.9807795529175}",10036,New York,NY,2
131,IY9NuJdUQHkTjBqZYfFNSQ,Sparks Steak House,925,"[{'alias': 'steak', 'title': 'Steakhouses'}]",[],"{'latitude': 40.75303, 'longitude': -73.972329}",10017,New York,NY,4
132,MhceeLrM2_3mcKw5EGLY6A,Pure Thai Cookhouse,2502,"[{'alias': 'thai', 'title': 'Thai'}, {'alias': 'noodles', 'title': 'Noodles'}, {'alias': 'chicken_wings', 'title': 'Chicken Wings'}]",['pickup'],"{'latitude': 40.764291, 'longitude': -73.988159}",10019,New York,NY,2
133,v4X0_xdRmVDQ5qgyGAubHw,Pickler,347,"[{'alias': 'coffee', 'title': 'Coffee & Tea'}, {'alias': 'sandwiches', 'title': 'Sandwiches'}, {'alias': 'burgers', 'title': 'Burgers'}]","['delivery', 'pickup']","{'latitude': 40.7520790100098, 'longitude': -73.9721755981445}",10017,New York,NY,2
134,z5hRX3iJ5Ty_S38iG_WY3Q,Tanner Smiths,1727,"[{'alias': 'cocktailbars', 'title': 'Cocktail Bars'}, {'alias': 'newamerican', 'title': 'American (New)'}, {'alias': 'speakeasies', 'title': 'Speakeasies'}]",['pickup'],"{'latitude': 40.76442, 'longitude': -73.98169}",10019,New York,NY,2
136,ntkrxOSYT5VtTL4Z5jmmeA,Ground Central,633,"[{'alias': 'coffee', 'title': 'Coffee & Tea'}, {'alias': 'salad', 'title': 'Salad'}, {'alias': 'sandwiches', 'title': 'Sandwiches'}]","['delivery', 'pickup']","{'latitude': 40.757575, 'longitude': -73.970321}",10022,New York,NY,1
137,vfYhEpp0x-DrNjC6GSJjPQ,Artichoke Basille's Pizza,3943,"[{'alias': 'pizza', 'title': 'Pizza'}]","['delivery', 'pickup']","{'latitude': 40.7321124557704, 'longitude': -73.9839056828882}",10003,New York,NY,1
138,-2aMphgYYnoxncuZ7xI3Gw,Bierhaus NYC,831,"[{'alias': 'german', 'title': 'German'}, {'alias': 'bars', 'title': 'Bars'}]","['delivery', 'pickup', 'restaurant_reservation']","{'latitude': 40.75261, 'longitude': -73.97342}",10017,New York,NY,2
139,bL6gcUWgFt7mOZYT_FaGSg,Shake Shack,3031,"[{'alias': 'burgers', 'title': 'Burgers'}, {'alias': 'icecream', 'title': 'Ice Cream & Frozen Yogurt'}]",['delivery'],"{'latitude': 40.758412133689, 'longitude': -73.9891822636127}",10036,New York,NY,2
140,L3L6xDdrS8c67BLZROg79A,Smith & Wollensky,1443,"[{'alias': 'steak', 'title': 'Steakhouses'}]",[],"{'latitude': 40.7552374844104, 'longitude': -73.9709472466553}",10022,New York,NY,4
141,L1eRvGuRW8gL_auRr8_Xog,Lady M Cake Boutique,1199,"[{'alias': 'desserts', 'title': 'Desserts'}, {'alias': 'bakeries', 'title': 'Bakeries'}, {'alias': 'customcakes', 'title': 'Custom Cakes'}]",[],"{'latitude': 40.752722, 'longitude': -73.9836459}",10018,New York,NY,2
142,al9HKZ3kCJipAJW4uxzj4A,Havana Central,2297,"[{'alias': 'cuban', 'title': 'Cuban'}, {'alias': 'latin', 'title': 'Latin American'}]","['delivery', 'pickup', 'restaurant_reservation']","{'latitude': 40.75831, 'longitude': -73.98416}",10036,New York,NY,2
143,N4Pss0mR4ygDOoSRpM2FQA,Culture Espresso,925,"[{'alias': 'coffee', 'title': 'Coffee & Tea'}]","['delivery', 'pickup']","{'latitude': 40.7521922375529, 'longitude': -73.985756306206}",10018,New York,NY,2
144,bvc5P9vmRiNhyVWjd5bVcg,Eclair Bakery,554,"[{'alias': 'bakeries', 'title': 'Bakeries'}, {'alias': 'coffee', 'title': 'Coffee & Tea'}, {'alias': 'macarons', 'title': 'Macarons'}]","['delivery', 'pickup']","{'latitude': 40.756722, 'longitude': -73.966611}",10022,New York,NY,2
145,Wslk06IopmoMSWEpS0DMCg,Lucid Café,262,"[{'alias': 'coffee', 'title': 'Coffee & Tea'}]",[],"{'latitude': 40.74874, 'longitude': -73.97785}",10016,New York,NY,1
146,U1H_LiA_-9NtaSbehPdODw,Ratatouille,258,"[{'alias': 'french', 'title': 'French'}, {'alias': 'chickenshop', 'title': 'Chicken Shop'}, {'alias': 'sandwiches', 'title': 'Sandwiches'}]","['delivery', 'pickup']","{'latitude': 40.7489198, 'longitude': -73.9763381}",10016,New York,NY,2
147,PSnNzN1rrIGM5Oj8Yu20Ew,Grand Central Oyster Bar,1700,"[{'alias': 'seafood', 'title': 'Seafood'}]",[],"{'latitude': 40.7528172354909, 'longitude': -73.9773735668119}",10017,New York,NY,3
148,ikazsJps1k-Br2FbunwCtg,Spot Dessert Bar,2949,"[{'alias': 'desserts', 'title': 'Desserts'}, {'alias': 'coffee', 'title': 'Coffee & Tea'}, {'alias': 'icecream', 'title': 'Ice Cream & Frozen Yogurt'}]","['delivery', 'pickup']","{'latitude': 40.72939, 'longitude': -73.98892}",10003,New York,NY,2
149,hXqf7aEgI4feEzHDpNXHLQ,Poketeria,314,"[{'alias': 'poke', 'title': 'Poke'}, {'alias': 'hawaiian', 'title': 'Hawaiian'}, {'alias': 'seafood', 'title': 'Seafood'}]","['pickup', 'delivery']","{'latitude': 40.7496948, 'longitude': -73.9831894}",10016,New York,NY,2
150,jz_FnuRpCNzfwwHHQ6Nbeg,Schmackary's,1970,"[{'alias': 'desserts', 'title': 'Desserts'}, {'alias': 'bakeries', 'title': 'Bakeries'}, {'alias': 'coffee', 'title': 'Coffee & Tea'}]","['pickup', 'delivery']","{'latitude': 40.760153883881, 'longitude': -73.990944257291}",10036,New York,NY,1
151,unWoFZeSWa0DK1YMekO_Uw,Trademark Taste + Grind,641,"[{'alias': 'venues', 'title': 'Venues & Event Spaces'}, {'alias': 'breakfast_brunch', 'title': 'Breakfast & Brunch'}, {'alias': 'tradamerican', 'title': 'American (Traditional)'}]","['pickup', 'delivery']","{'latitude': 40.7503233942813, 'longitude': -73.9855566306885}",10018,New York,NY,2
152,mHBhUxHgDGjsB1LJl4qW0w,Hillstone Restaurant,1087,"[{'alias': 'jazzandblues', 'title': 'Jazz & Blues'}, {'alias': 'newamerican', 'title': 'American (New)'}, {'alias': 'sushi', 'title': 'Sushi Bars'}]",[],"{'latitude': 40.758352, 'longitude': -73.969112}",10022,New York,NY,3
153,MGBFibk55nVIGsIV5zZtkw,Previti Pizza,414,"[{'alias': 'pizza', 'title': 'Pizza'}, {'alias': 'beerbar', 'title': 'Beer Bar'}, {'alias': 'sandwiches', 'title': 'Sandwiches'}]","['pickup', 'delivery']","{'latitude': 40.7509380299598, 'longitude': -73.9767879766344}",10168,New York,NY,1
154,EKkHfSYTm266-ZBve3SdgA,Yoon Haeundae Galbi,394,"[{'alias': 'korean', 'title': 'Korean'}, {'alias': 'bbq', 'title': 'Barbeque'}, {'alias': 'steak', 'title': 'Steakhouses'}]","['pickup', 'restaurant_reservation', 'delivery']","{'latitude': 40.749866, 'longitude': -73.984441}",10018,New York,NY,3
156,6hKJePanmG9AxK4dfwgyyg,The Horny Ram,462,"[{'alias': 'newamerican', 'title': 'American (New)'}, {'alias': 'venues', 'title': 'Venues & Event Spaces'}, {'alias': 'gastropubs', 'title': 'Gastropubs'}]",['restaurant_reservation'],"{'latitude': 40.75528, 'longitude': -73.96857}",10022,New York,NY,2
157,_saXnBy0Wq2Gb3YusWZhqw,Five Senses,1406,"[{'alias': 'korean', 'title': 'Korean'}, {'alias': 'bbq', 'title': 'Barbeque'}]","['pickup', 'delivery']","{'latitude': 40.747573158626, 'longitude': -73.9863122632311}",10001,New York,NY,2
158,qm1J_dPA5IHij1oAnoZwHw,nonono,679,"[{'alias': 'tapasmallplates', 'title': 'Tapas/Small Plates'}, {'alias': 'izakaya', 'title': 'Izakaya'}, {'alias': 'ramen', 'title': 'Ramen'}]","['pickup', 'restaurant_reservation', 'delivery']","{'latitude': 40.74545, 'longitude': -73.98499}",10016,New York,NY,2
159,x9ADy3a--S_6Oqn_1KLipA,Kang Ho Dong Baekjeong,1241,"[{'alias': 'korean', 'title': 'Korean'}, {'alias': 'bbq', 'title': 'Barbeque'}]",[],"{'latitude': 40.747173576622, 'longitude': -73.9852144232788}",10016,New York,NY,3
160,jCRblp7F5IbUSySK_Y7Qiw,EONS Greek Food for Life,321,"[{'alias': 'greek', 'title': 'Greek'}, {'alias': 'mediterranean', 'title': 'Mediterranean'}, {'alias': 'salad', 'title': 'Salad'}]","['pickup', 'delivery']","{'latitude': 40.74528, 'longitude': -73.97588}",10016,New York,NY,2
161,c3D2ckzacnPtdGIM8tb-_w,B Side Pizza & Wine Bar,1121,"[{'alias': 'pizza', 'title': 'Pizza'}, {'alias': 'italian', 'title': 'Italian'}, {'alias': 'wine_bars', 'title': 'Wine Bars'}]",[],"{'latitude': 40.76394, 'longitude': -73.9883399}",10019,New York,NY,2
162,H_KyiRhwho8rdlw_R93_0Q,Marea,2019,"[{'alias': 'italian', 'title': 'Italian'}, {'alias': 'seafood', 'title': 'Seafood'}, {'alias': 'wine_bars', 'title': 'Wine Bars'}]",[],"{'latitude': 40.7674213694566, 'longitude': -73.9810554368179}",10019,New York,NY,4
163,KEEXuHCYhsQJ-zpJhu98bA,Joe's Pizza,1041,"[{'alias': 'pizza', 'title': 'Pizza'}]","['pickup', 'delivery']","{'latitude': 40.7545841255557, 'longitude': -73.9870039190341}",10018,New York,NY,1
164,ETgJqJHV7BW6pIr9Ox74sA,Amélie,2653,"[{'alias': 'french', 'title': 'French'}, {'alias': 'wine_bars', 'title': 'Wine Bars'}]",['restaurant_reservation'],"{'latitude': 40.7327, 'longitude': -73.99766}",10011,New York,NY,2
165,kB-lmHs7yNwLIlQyp0kMmQ,Quality Meats,1955,"[{'alias': 'steak', 'title': 'Steakhouses'}]","['pickup', 'delivery']","{'latitude': 40.764958, 'longitude': -73.976206}",10019,New York,NY,4
166,R3gSQGB3aEmVpwbKIgOPqg,Fabio Cucina Italiana,312,"[{'alias': 'italian', 'title': 'Italian'}]","['pickup', 'delivery']","{'latitude': 40.75667, 'longitude': -73.96912}",10022,New York,NY,3
167,mZE91iNgAJhm7r1eWGqaEQ,Bareburger,769,"[{'alias': 'burgers', 'title': 'Burgers'}, {'alias': 'salad', 'title': 'Salad'}, {'alias': 'tradamerican', 'title': 'American (Traditional)'}]","['pickup', 'delivery']","{'latitude': 40.74616, 'longitude': -73.97814}",10016,New York,NY,2
168,v0DwpyNrKeS2ZhfMjVu8lg,CajunSea & Oyster Bar,1224,"[{'alias': 'cajun', 'title': 'Cajun/Creole'}, {'alias': 'seafood', 'title': 'Seafood'}, {'alias': 'breakfast_brunch', 'title': 'Breakfast & Brunch'}]",['restaurant_reservation'],"{'latitude': 40.7483352, 'longitude': -73.9867701}",10001,New York,NY,2
169,4fNKBr3mlxKHfCojW0i_Uw,NAYA,407,"[{'alias': 'mediterranean', 'title': 'Mediterranean'}, {'alias': 'lebanese', 'title': 'Lebanese'}]","['pickup', 'delivery']","{'latitude': 40.7516816, 'longitude': -73.9739628}",10017,New York,NY,2
170,v0opDMezc6pKgdfR22KUnQ,Da Tang Szechuan,212,"[{'alias': 'szechuan', 'title': 'Szechuan'}]","['pickup', 'delivery']","{'latitude': 40.75128, 'longitude': -73.98376}",10018,New York,NY,2
171,3uEkZEAp7biQEtt0S7W1Vg,Vatan Indian Vegetarian,644,"[{'alias': 'indpak', 'title': 'Indian'}, {'alias': 'vegetarian', 'title': 'Vegetarian'}]",['restaurant_reservation'],"{'latitude': 40.74236, 'longitude': -73.9803699}",10016,New York,NY,3
172,vjubSxmdG_HoBBgd39geBw,Nino's 46,1216,"[{'alias': 'italian', 'title': 'Italian'}, {'alias': 'gluten_free', 'title': 'Gluten-Free'}, {'alias': 'pizza', 'title': 'Pizza'}]","['pickup', 'restaurant_reservation', 'delivery']","{'latitude': 40.7569159, 'longitude': -73.980516}",10036,New York,NY,2
173,26M6nFVuA4bvhU0TBZOuLg,Pierre Loti Midtown,315,"[{'alias': 'wine_bars', 'title': 'Wine Bars'}, {'alias': 'tapasmallplates', 'title': 'Tapas/Small Plates'}, {'alias': 'turkish', 'title': 'Turkish'}]","['pickup', 'delivery']","{'latitude': 40.7558717456695, 'longitude': -73.9673550550069}",10022,New York,NY,2
174,hDgpiXE5_d4Is1sJ5kUBQg,Wine:30,743,"[{'alias': 'wine_bars', 'title': 'Wine Bars'}, {'alias': 'newamerican', 'title': 'American (New)'}, {'alias': 'venues', 'title': 'Venues & Event Spaces'}]","['pickup', 'restaurant_reservation', 'delivery']","{'latitude': 40.7448157, 'longitude': -73.9837861}",10016,New York,NY,2
176,oSFL1AVZYouS4YrDjoLyLA,Baby Bo's Cantina,615,"[{'alias': 'mexican', 'title': 'Mexican'}]","['pickup', 'delivery']","{'latitude': 40.74514, 'longitude': -73.97598}",10016,New York,NY,2
177,eFS3e9ctodj4aBTzRv_vtQ,Ben & Jack's Steakhouse,296,"[{'alias': 'steak', 'title': 'Steakhouses'}, {'alias': 'desserts', 'title': 'Desserts'}, {'alias': 'wine_bars', 'title': 'Wine Bars'}]","['pickup', 'restaurant_reservation']","{'latitude': 40.75183, 'longitude': -73.97236}",10017,New York,NY,3
178,vlepW-Y_RDQaDMLtEwHWmg,Bubo,172,"[{'alias': 'cocktailbars', 'title': 'Cocktail Bars'}, {'alias': 'breakfast_brunch', 'title': 'Breakfast & Brunch'}, {'alias': 'beerbar', 'title': 'Beer Bar'}]",[],"{'latitude': 40.74598, 'longitude': -73.97753}",10016,New York,NY,2
179,ZD22cMZvSmfNsXS9vKizGA,Angel's Share,2105,"[{'alias': 'cocktailbars', 'title': 'Cocktail Bars'}, {'alias': 'speakeasies', 'title': 'Speakeasies'}]",[],"{'latitude': 40.7297097529882, 'longitude': -73.9891492245369}",10003,New York,NY,2
180,01isnBO1rFO2LTOeNfYl9w,Hillstone Restaurant,935,"[{'alias': 'newamerican', 'title': 'American (New)'}, {'alias': 'sushi', 'title': 'Sushi Bars'}]",[],"{'latitude': 40.7427534, 'longitude': -73.9847308}",10010,New York,NY,3
181,J4pAppaiXwCkbLOGc4wHww,Raines Law Room,1445,"[{'alias': 'lounges', 'title': 'Lounges'}, {'alias': 'cocktailbars', 'title': 'Cocktail Bars'}, {'alias': 'venues', 'title': 'Venues & Event Spaces'}]",[],"{'latitude': 40.73869, 'longitude': -73.99462}",10011,New York,NY,3
182,BPyt7S9TdcR1u571iacg7g,The Kati Roll Company,1530,"[{'alias': 'indpak', 'title': 'Indian'}, {'alias': 'halal', 'title': 'Halal'}]","['pickup', 'delivery']","{'latitude': 40.75269, 'longitude': -73.98466}",10018,New York,NY,1
183,Ac8y23odvFOIQSKdrV63Uw,Le Bateau Ivre,449,"[{'alias': 'french', 'title': 'French'}, {'alias': 'wine_bars', 'title': 'Wine Bars'}, {'alias': 'breakfast_brunch', 'title': 'Breakfast & Brunch'}]","['pickup', 'restaurant_reservation']","{'latitude': 40.7558, 'longitude': -73.96905}",10022,New York,NY,3
184,eRtceh_W_yniAfCqJni5Bg,Go! Go! Curry!,1442,"[{'alias': 'japacurry', 'title': 'Japanese Curry'}]","['pickup', 'delivery']","{'latitude': 40.75463, 'longitude': -73.99115}",10018,New York,NY,2
185,NYU2iSBy2nwBmggb07FWXA,Bluestone Lane,266,"[{'alias': 'coffee', 'title': 'Coffee & Tea'}, {'alias': 'gluten_free', 'title': 'Gluten-Free'}, {'alias': 'breakfast_brunch', 'title': 'Breakfast & Brunch'}]",[],"{'latitude': 40.7554239, 'longitude': -73.9705679}",10022,New York,NY,1
186,BxNs9d8rEW3Tls-nVdmIgA,Reichenbach Hall,753,"[{'alias': 'bars', 'title': 'Bars'}, {'alias': 'german', 'title': 'German'}, {'alias': 'pretzels', 'title': 'Pretzels'}]",[],"{'latitude': 40.7508, 'longitude': -73.98401}",10018,New York,NY,2
187,FoR70YoGSb4_QavCe1WZEw,Beyond Sushi,913,"[{'alias': 'sushi', 'title': 'Sushi Bars'}, {'alias': 'vegan', 'title': 'Vegan'}, {'alias': 'kosher', 'title': 'Kosher'}]","['pickup', 'delivery']","{'latitude': 40.7329, 'longitude': -73.98588}",10003,New York,NY,2
188,j5sBqXdeDsvkK-Ryh7w2VQ,Besfren,764,"[{'alias': 'coffee', 'title': 'Coffee & Tea'}, {'alias': 'cakeshop', 'title': 'Patisserie/Cake Shop'}, {'alias': 'icecream', 'title': 'Ice Cream & Frozen Yogurt'}]","['pickup', 'delivery']","{'latitude': 40.746963, 'longitude': -73.98533}",10016,New York,NY,2
189,Xk3BVvlX-KXh6kJhbClMKw,Fine & Rare,312,"[{'alias': 'newamerican', 'title': 'American (New)'}, {'alias': 'jazzandblues', 'title': 'Jazz & Blues'}, {'alias': 'lounges', 'title': 'Lounges'}]",[],"{'latitude': 40.7501754760742, 'longitude': -73.9821929931641}",10016,New York,NY,3
190,HjGjGy3JhhRFcR7MaQLrjA,Frisson Espresso,705,"[{'alias': 'coffee', 'title': 'Coffee & Tea'}, {'alias': 'cafes', 'title': 'Cafes'}]","['pickup', 'delivery']","{'latitude': 40.7608108520508, 'longitude': -73.9889984130859}",10036,New York,NY,1
191,H7QoApSloy7Zu0LFpQVv-A,Keki Modern Cakes,267,"[{'alias': 'bakeries', 'title': 'Bakeries'}]","['pickup', 'delivery']","{'latitude': 40.7468603, 'longitude': -73.984986}",10016,New York,NY,2
192,2mzyXxnstSPcpDS3u5g_7w,Park Avenue Autumn/Winter/Spring/Summer,955,"[{'alias': 'newamerican', 'title': 'American (New)'}]",[],"{'latitude': 40.7419710606337, 'longitude': -73.9852105826139}",10010,New York,NY,3
193,oRdM7n-AfBPBGAlH4Q0Sag,My Pie Pizzeria Romana,746,"[{'alias': 'italian', 'title': 'Italian'}, {'alias': 'pizza', 'title': 'Pizza'}]","['pickup', 'delivery']","{'latitude': 40.7608512, 'longitude': -73.9694809}",10022,New York,NY,1
194,6zH2Ih2Hw2wwf9ssIbZYRw,VinoTapa,394,"[{'alias': 'tapas', 'title': 'Tapas Bars'}, {'alias': 'wine_bars', 'title': 'Wine Bars'}, {'alias': 'spanish', 'title': 'Spanish'}]",[],"{'latitude': 40.7436868467235, 'longitude': -73.9790102422585}",10016,New York,NY,2
195,YtXl15Nv7TZvV3yIqbZc8A,Burger & Lobster,985,"[{'alias': 'seafood', 'title': 'Seafood'}, {'alias': 'burgers', 'title': 'Burgers'}]","['pickup', 'restaurant_reservation', 'delivery']","{'latitude': 40.75596, 'longitude': -73.98532}",10036,New York,NY,2
196,tiwrAjwddw-3TSrnWSYD7w,Raines Law Room at the William,344,"[{'alias': 'lounges', 'title': 'Lounges'}, {'alias': 'cocktailbars', 'title': 'Cocktail Bars'}, {'alias': 'venues', 'title': 'Venues & Event Spaces'}]",[],"{'latitude': 40.75058, 'longitude': -73.98018}",10016,New York,NY,2
197,5EdSpKfMvIV0rS-CTEcEWw,CoCo Fresh Tea & Juice,416,"[{'alias': 'coffee', 'title': 'Coffee & Tea'}, {'alias': 'juicebars', 'title': 'Juice Bars & Smoothies'}, {'alias': 'bubbletea', 'title': 'Bubble Tea'}]",[],"{'latitude': 40.753285959363, 'longitude': -73.9743315428495}",10017,New York,NY,1
198,ZMQzXIiqdBIuicFySTWGKg,Dough,1485,"[{'alias': 'desserts', 'title': 'Desserts'}, {'alias': 'donuts', 'title': 'Donuts'}, {'alias': 'bakeries', 'title': 'Bakeries'}]",['pickup'],"{'latitude': 40.73931, 'longitude': -73.99243}",10011,New York,NY,1
199,wDuf4Qz9qsC62amLZgWNJQ,Little Alley,355,"[{'alias': 'shanghainese', 'title': 'Shanghainese'}]","['pickup', 'delivery']","{'latitude': 40.74744, 'longitude': -73.97728}",10016,New York,NY,2
200,lSQAmoQtmciUld36ogOoOw,Cho Dang Gol Korean Restaurant,1078,"[{'alias': 'korean', 'title': 'Korean'}]","['pickup', 'delivery']","{'latitude': 40.7502365112305, 'longitude': -73.986198425293}",10001,New York,NY,2
201,UtknyDJ_DPut-FKRqs0wpQ,Royal Grill Halal Food,344,"[{'alias': 'halal', 'title': 'Halal'}, {'alias': 'foodtrucks', 'title': 'Food Trucks'}]",['pickup'],"{'latitude': 40.75614, 'longitude': -73.98316}",10018,New York,NY,1
202,uTXRhiUm5yXLLjC1oGy7ig,212 Steakhouse,664,"[{'alias': 'steak', 'title': 'Steakhouses'}, {'alias': 'wine_bars', 'title': 'Wine Bars'}, {'alias': 'seafood', 'title': 'Seafood'}]","['pickup', 'delivery']","{'latitude': 40.75634, 'longitude': -73.966489}",10022,New York,NY,3
203,vbvtWBbO3Q-Q15w7aHxgVg,Max Brenner - New York,4660,"[{'alias': 'desserts', 'title': 'Desserts'}, {'alias': 'tradamerican', 'title': 'American (Traditional)'}, {'alias': 'breakfast_brunch', 'title': 'Breakfast & Brunch'}]",[],"{'latitude': 40.7342670594805, 'longitude': -73.9910549187747}",10003,New York,NY,2
204,rZ9OFoSqy8u4WECfh--ylg,Marta,882,"[{'alias': 'pizza', 'title': 'Pizza'}, {'alias': 'italian', 'title': 'Italian'}]",[],"{'latitude': 40.7445212750732, 'longitude': -73.9845828515206}",10016,New York,NY,3
205,OxqUWRZFUOz3r6_4bh4mfg,Cock & Bull,534,"[{'alias': 'british', 'title': 'British'}, {'alias': 'pubs', 'title': 'Pubs'}, {'alias': 'gastropubs', 'title': 'Gastropubs'}]",['restaurant_reservation'],"{'latitude': 40.7560908823673, 'longitude': -73.9804858350908}",10036,New York,NY,2
206,TcuWyuZAORVnQBPCMNbTgw,Beyond Sushi,672,"[{'alias': 'sushi', 'title': 'Sushi Bars'}, {'alias': 'kosher', 'title': 'Kosher'}, {'alias': 'salad', 'title': 'Salad'}]","['pickup', 'delivery']","{'latitude': 40.76331, 'longitude': -73.97717}",10019,New York,NY,2
207,xkvv0n7jbl4Ra3Vm_jfxaA,Upland,994,"[{'alias': 'newamerican', 'title': 'American (New)'}, {'alias': 'burgers', 'title': 'Burgers'}]",[],"{'latitude': 40.7418912, 'longitude': -73.9846396}",10010,New York,NY,3
208,4_XK2wWRk-tx0ZTdi2CiGg,Shake Shack,342,"[{'alias': 'burgers', 'title': 'Burgers'}, {'alias': 'icecream', 'title': 'Ice Cream & Frozen Yogurt'}]",['delivery'],"{'latitude': 40.749403515382, 'longitude': -73.9756867289543}",10016,New York,NY,2
209,DJSLGbSqCJ1W8ma3LFlMuw,Patzeria Perfect Pizza,1599,"[{'alias': 'pizza', 'title': 'Pizza'}, {'alias': 'diners', 'title': 'Diners'}]","['pickup', 'delivery']","{'latitude': 40.7594653910395, 'longitude': -73.9867857052142}",10036,New York,NY,1
210,ieXKc6S3WlEiVkyxgaF9Ig,Tempura Matsui,130,"[{'alias': 'japanese', 'title': 'Japanese'}, {'alias': 'seafood', 'title': 'Seafood'}]",[],"{'latitude': 40.74819, 'longitude': -73.97467}",10016,New York,NY,4
211,wjIyCBEpCG_HRp8veiI0YQ,Ootoya Times Square,924,"[{'alias': 'japanese', 'title': 'Japanese'}, {'alias': 'sushi', 'title': 'Sushi Bars'}, {'alias': 'hotpot', 'title': 'Hot Pot'}]",[],"{'latitude': 40.75487, 'longitude': -73.98599}",10036,New York,NY,2
212,9vYSRXdp5JtFmqhi0FigMA,Le Relais De Venise L'Entrecôte,799,"[{'alias': 'steak', 'title': 'Steakhouses'}, {'alias': 'french', 'title': 'French'}, {'alias': 'brasseries', 'title': 'Brasseries'}]",[],"{'latitude': 40.7577089110773, 'longitude': -73.9717626571655}",10022,New York,NY,2
213,1Ed-tb_0dBGrXfsYyehmvg,Momofuku Ssam Bar,2433,"[{'alias': 'asianfusion', 'title': 'Asian Fusion'}, {'alias': 'korean', 'title': 'Korean'}, {'alias': 'singaporean', 'title': 'Singaporean'}]",[],"{'latitude': 40.73169, 'longitude': -73.985846}",10003,New York,NY,3
214,pb_ryc8FYHpUPV56eV2Eyg,Brooklyn Bagel & Coffee Company,1420,"[{'alias': 'bagels', 'title': 'Bagels'}, {'alias': 'breakfast_brunch', 'title': 'Breakfast & Brunch'}, {'alias': 'cafes', 'title': 'Cafes'}]","['pickup', 'delivery']","{'latitude': 40.746183, 'longitude': -73.997642}",10001,New York,NY,1
215,K_nsaXmlsyg0I8PoIjPXrA,Morton's The Steakhouse,513,"[{'alias': 'steak', 'title': 'Steakhouses'}]","['pickup', 'delivery']","{'latitude': 40.7552153, 'longitude': -73.9787657}",10017,New York,NY,4
216,54hPnm8Z4rJST1CZWaOznw,Pampano,558,"[{'alias': 'mexican', 'title': 'Mexican'}, {'alias': 'latin', 'title': 'Latin American'}]",[],"{'latitude': 40.75503, 'longitude': -73.97054}",10017,New York,NY,3
217,dgaNriM1VdI2nGochhHE_g,Casa Enrique,1174,"[{'alias': 'mexican', 'title': 'Mexican'}]",['delivery'],"{'latitude': 40.743404338358, 'longitude': -73.954350367693}",11101,Long Island City,NY,2
218,OqNmzS2N2I750zYgUC6IgA,Riverpark,811,"[{'alias': 'newamerican', 'title': 'American (New)'}, {'alias': 'breakfast_brunch', 'title': 'Breakfast & Brunch'}, {'alias': 'venues', 'title': 'Venues & Event Spaces'}]",[],"{'latitude': 40.7393734243765, 'longitude': -73.9734843398117}",10016,New York,NY,3
219,Ry04HQ6kNsF1RYTjINDaYw,Blank Slate Coffee + Kitchen,616,"[{'alias': 'coffee', 'title': 'Coffee & Tea'}, {'alias': 'breakfast_brunch', 'title': 'Breakfast & Brunch'}]","['pickup', 'delivery']","{'latitude': 40.7453293, 'longitude': -73.9845257}",10016,New York,NY,2
220,AILf_L7I9vJ2pyHmSo9v8Q,OBAO,889,"[{'alias': 'asianfusion', 'title': 'Asian Fusion'}, {'alias': 'thai', 'title': 'Thai'}, {'alias': 'vietnamese', 'title': 'Vietnamese'}]","['pickup', 'restaurant_reservation', 'delivery']","{'latitude': 40.757122, 'longitude': -73.968566}",10022,New York,NY,2
221,Wx6lMnEh7dCmX-9PQF1Ifw,Toloache 50,1948,"[{'alias': 'mexican', 'title': 'Mexican'}]","['pickup', 'restaurant_reservation', 'delivery']","{'latitude': 40.762325, 'longitude': -73.9855741}",10012,New York,NY,2
222,DW5SL9RM-kJnmRyYo4oEqg,Ruby's - Murray Hill,455,"[{'alias': 'breakfast_brunch', 'title': 'Breakfast & Brunch'}, {'alias': 'burgers', 'title': 'Burgers'}, {'alias': 'australian', 'title': 'Australian'}]","['pickup', 'delivery']","{'latitude': 40.74364, 'longitude': -73.97985}",10016,New York,NY,2
223,51_f1MyuRFpEIpzb57YmEA,Hendriks,375,"[{'alias': 'newamerican', 'title': 'American (New)'}, {'alias': 'burgers', 'title': 'Burgers'}, {'alias': 'breakfast_brunch', 'title': 'Breakfast & Brunch'}]","['pickup', 'restaurant_reservation', 'delivery']","{'latitude': 40.747395, 'longitude': -73.97649}",10016,New York,NY,2
224,L9YxBR9YmJUWnlg4Kv4xNQ,Buttercup Bake Shop,851,"[{'alias': 'bakeries', 'title': 'Bakeries'}, {'alias': 'cupcakes', 'title': 'Cupcakes'}]","['pickup', 'delivery']","{'latitude': 40.75595, 'longitude': -73.96808}",10022,New York,NY,2
225,nv0z4xJoHGnQmBkQasYT6g,La Biblioteca,426,"[{'alias': 'lounges', 'title': 'Lounges'}]",[],"{'latitude': 40.74972, 'longitude': -73.97544}",10017,New York,NY,2
226,MIuFXBFthAWeEMxyP_lm9A,Blue Smoke,1739,"[{'alias': 'southern', 'title': 'Southern'}, {'alias': 'bbq', 'title': 'Barbeque'}]","['pickup', 'delivery']","{'latitude': 40.74228, 'longitude': -73.98375}",10016,New York,NY,2
227,NgD-6ogFGc_c4z5_Ur4k2g,Dhaba Indian Cuisine,1480,"[{'alias': 'indpak', 'title': 'Indian'}, {'alias': 'buffets', 'title': 'Buffets'}]","['pickup', 'delivery']","{'latitude': 40.742364, 'longitude': -73.982813}",10016,New York,NY,2
228,xFp3xSQ43J-i7nmJfNBsZA,Norikoh,544,"[{'alias': 'sushi', 'title': 'Sushi Bars'}, {'alias': 'ramen', 'title': 'Ramen'}, {'alias': 'asianfusion', 'title': 'Asian Fusion'}]","['pickup', 'restaurant_reservation', 'delivery']","{'latitude': 40.75116, 'longitude': -73.98153}",10016,New York,NY,2
229,_gzXNKarTxagBp6_PkmQKw,Gotham,1600,"[{'alias': 'newamerican', 'title': 'American (New)'}, {'alias': 'bars', 'title': 'Bars'}]","['pickup', 'delivery']","{'latitude': 40.734186, 'longitude': -73.993696}",10003,New York,NY,4
230,KxyH5zvTyXawl17lHjA4SQ,Beyond Sushi,485,"[{'alias': 'vegan', 'title': 'Vegan'}, {'alias': 'sushi', 'title': 'Sushi Bars'}, {'alias': 'kosher', 'title': 'Kosher'}]","['pickup', 'restaurant_reservation', 'delivery']","{'latitude': 40.75247, 'longitude': -73.98845}",10018,New York,NY,2
231,jG3XHl8Bkw5KEwAI93ciVw,Nirvana,474,"[{'alias': 'indpak', 'title': 'Indian'}, {'alias': 'seafood', 'title': 'Seafood'}, {'alias': 'desserts', 'title': 'Desserts'}]","['pickup', 'delivery']","{'latitude': 40.74998, 'longitude': -73.97729}",10016,New York,NY,2
232,iks1xNyp-uZnaeunOM2UPg,Magnolia Bakery Rockefeller Center,2464,"[{'alias': 'desserts', 'title': 'Desserts'}, {'alias': 'bakeries', 'title': 'Bakeries'}, {'alias': 'cupcakes', 'title': 'Cupcakes'}]","['pickup', 'delivery']","{'latitude': 40.7592651914885, 'longitude': -73.980564548757}",10020,New York,NY,2
233,7B2XMvV5uGuKyl19-HTSvg,Fogo de Chao Brazilian Steakhouse,1180,"[{'alias': 'brazilian', 'title': 'Brazilian'}, {'alias': 'steak', 'title': 'Steakhouses'}]",[],"{'latitude': 40.7610765, 'longitude': -73.9777711}",10019,New York,NY,3
234,3Ic4C60oSH1cV2jknUXSjQ,The Flatiron Room,791,"[{'alias': 'lounges', 'title': 'Lounges'}, {'alias': 'jazzandblues', 'title': 'Jazz & Blues'}, {'alias': 'tradamerican', 'title': 'American (Traditional)'}]",[],"{'latitude': 40.74452, 'longitude': -73.99049}",10010,New York,NY,3
235,-4PCSqieO2rJ4-htOh8v0w,Lexington Brass,849,"[{'alias': 'tradamerican', 'title': 'American (Traditional)'}, {'alias': 'gluten_free', 'title': 'Gluten-Free'}, {'alias': 'breakfast_brunch', 'title': 'Breakfast & Brunch'}]","['pickup', 'delivery']","{'latitude': 40.7552634948238, 'longitude': -73.9729699790478}",10017,New York,NY,2
236,OwV-MtDBC2H08rVcBqP2mA,Pio Pio 8,2317,"[{'alias': 'latin', 'title': 'Latin American'}, {'alias': 'peruvian', 'title': 'Peruvian'}]",[],"{'latitude': 40.760506289326, 'longitude': -73.994564488901}",10036,New York,NY,2
237,iXV4FMZPru7BB_nwN_8mVw,Maiella,882,"[{'alias': 'italian', 'title': 'Italian'}, {'alias': 'seafood', 'title': 'Seafood'}, {'alias': 'breakfast_brunch', 'title': 'Breakfast & Brunch'}]",[],"{'latitude': 40.7470416595732, 'longitude': -73.956579002435}",11109,Long Island City,NY,3
238,13jzN6n45XtcbYA46nWThg,The Bar Downstairs and Kitchen,370,"[{'alias': 'lounges', 'title': 'Lounges'}, {'alias': 'tapasmallplates', 'title': 'Tapas/Small Plates'}, {'alias': 'cocktailbars', 'title': 'Cocktail Bars'}]",[],"{'latitude': 40.7528813879886, 'longitude': -73.9810645580292}",10017,New York,NY,3
239,N0cfNApqwrPEqXgcf3NWmg,Bonchon - 32nd Street,1138,"[{'alias': 'chicken_wings', 'title': 'Chicken Wings'}, {'alias': 'korean', 'title': 'Korean'}, {'alias': 'asianfusion', 'title': 'Asian Fusion'}]","['pickup', 'delivery']","{'latitude': 40.747436, 'longitude': -73.985027}",10016,New York,NY,2
240,WKDdD8Z17-P1XhkyJtDEFA,Johny's Luncheonette,960,"[{'alias': 'tradamerican', 'title': 'American (Traditional)'}, {'alias': 'breakfast_brunch', 'title': 'Breakfast & Brunch'}]","['pickup', 'delivery']","{'latitude': 40.7444458007812, 'longitude': -73.9930725097656}",10001,New York,NY,1
241,d15lwNLOlLSeaAYqPadntw,Sam's Place,240,"[{'alias': 'italian', 'title': 'Italian'}]","['pickup', 'delivery']","{'latitude': 40.749270880468, 'longitude': -73.977082744053}",10016,New York,NY,2
242,HEs6llkn3wIP1ATXeIZQew,Pippali,760,"[{'alias': 'indpak', 'title': 'Indian'}]","['pickup', 'restaurant_reservation', 'delivery']","{'latitude': 40.74233, 'longitude': -73.98331}",10016,New York,NY,2
244,Xd_l7jtUAZZAAvK8-mI2Jw,The Smith,958,"[{'alias': 'newamerican', 'title': 'American (New)'}, {'alias': 'breakfast_brunch', 'title': 'Breakfast & Brunch'}, {'alias': 'cocktailbars', 'title': 'Cocktail Bars'}]","['pickup', 'delivery']","{'latitude': 40.74424, 'longitude': -73.98878}",10010,New York,NY,2
245,VtJd1l64kqUUyWacwK0J2Q,Veniero's,2019,"[{'alias': 'bakeries', 'title': 'Bakeries'}, {'alias': 'desserts', 'title': 'Desserts'}, {'alias': 'italian', 'title': 'Italian'}]","['pickup', 'delivery']","{'latitude': 40.72941, 'longitude': -73.98454}",10003,New York,NY,2
246,NN3mOWF5e_pnR1ArqM2bHQ,OBAO,2554,"[{'alias': 'vietnamese', 'title': 'Vietnamese'}, {'alias': 'thai', 'title': 'Thai'}, {'alias': 'asianfusion', 'title': 'Asian Fusion'}]","['pickup', 'delivery']","{'latitude': 40.7606544, 'longitude': -73.991332}",10036,New York,NY,2
247,LJaLQby_H8E9eHvcIW0xnw,Spoon Table & Bar,441,"[{'alias': 'newamerican', 'title': 'American (New)'}, {'alias': 'breakfast_brunch', 'title': 'Breakfast & Brunch'}, {'alias': 'cocktailbars', 'title': 'Cocktail Bars'}]","['pickup', 'restaurant_reservation', 'delivery']","{'latitude': 40.7469069957733, 'longitude': -73.9831063896418}",10016,New York,NY,2
248,mUl0wtO7tPkBocuJqZ-7Dw,Dun Huang -  Grand Central,163,"[{'alias': 'chinese', 'title': 'Chinese'}, {'alias': 'noodles', 'title': 'Noodles'}]","['pickup', 'delivery']","{'latitude': 40.74922, 'longitude': -73.97785}",10016,New York,NY,2
249,A2DV-AQIXRYUMu5Ak5mjxg,Patzeria Family & Friends,1094,"[{'alias': 'italian', 'title': 'Italian'}, {'alias': 'pizza', 'title': 'Pizza'}, {'alias': 'breakfast_brunch', 'title': 'Breakfast & Brunch'}]","['pickup', 'delivery']","{'latitude': 40.7615, 'longitude': -73.98754}",10036,New York,NY,2
250,TPBTUvbBVUfJeEWWy1o1QQ,Sundaes and Cones,1475,"[{'alias': 'icecream', 'title': 'Ice Cream & Frozen Yogurt'}, {'alias': 'bakeries', 'title': 'Bakeries'}]",[],"{'latitude': 40.730934, 'longitude': -73.989318}",10003,New York,NY,1
251,VPVjK6gHgKkSOtA4uruY0Q,Middle Branch,361,"[{'alias': 'cocktailbars', 'title': 'Cocktail Bars'}]",[],"{'latitude': 40.745288848877, 'longitude': -73.9794616699219}",10016,New York,NY,2
252,5mJgmAgKpTbCDdpVs7OFxQ,Ted's Corner Tavern,199,"[{'alias': 'cocktailbars', 'title': 'Cocktail Bars'}, {'alias': 'mediterranean', 'title': 'Mediterranean'}, {'alias': 'beer_and_wine', 'title': 'Beer, Wine & Spirits'}]",[],"{'latitude': 40.7462, 'longitude': -73.9774599}",10016,New York,NY,2
253,T-ciFE0hc6O2JDY8Y1cDgg,Foxy Johns Bar & Kitchen,288,"[{'alias': 'bars', 'title': 'Bars'}, {'alias': 'newamerican', 'title': 'American (New)'}, {'alias': 'venues', 'title': 'Venues & Event Spaces'}]","['delivery', 'pickup']","{'latitude': 40.75445, 'longitude': -73.97274}",10017,New York,NY,2
254,eGIY_25KFspf8KefDQMj-Q,Lan Larb,283,"[{'alias': 'thai', 'title': 'Thai'}]","['delivery', 'pickup']","{'latitude': 40.745373, 'longitude': -73.975807}",10016,New York,NY,2
255,BdHWUmVFuo1R8Lctv4K1Ow,El Parador Cafe,425,"[{'alias': 'mexican', 'title': 'Mexican'}, {'alias': 'desserts', 'title': 'Desserts'}]",[],"{'latitude': 40.7444599, 'longitude': -73.97472}",10016,New York,NY,2
256,TU_BU9HLflYI2xlyqVQdRA,TAO Uptown,2580,"[{'alias': 'asianfusion', 'title': 'Asian Fusion'}]","['delivery', 'pickup']","{'latitude': 40.76269, 'longitude': -73.97147}",10022,New York,NY,3
257,432F7ulSgnm1fNyefqgrNw,Strip House,534,"[{'alias': 'steak', 'title': 'Steakhouses'}]","['delivery', 'pickup']","{'latitude': 40.7552982092827, 'longitude': -73.98068987648}",10036,New York,NY,4
258,lNP1km2kaEtlsBw2VNHHhQ,Tap Haus 33,164,"[{'alias': 'sportsbars', 'title': 'Sports Bars'}, {'alias': 'newamerican', 'title': 'American (New)'}, {'alias': 'pubs', 'title': 'Pubs'}]",[],"{'latitude': 40.747247, 'longitude': -73.9843}",10016,New York,NY,2
259,0vSAR3Ym2fuehBvHSZyqIQ,Koi Restaurant,754,"[{'alias': 'sushi', 'title': 'Sushi Bars'}, {'alias': 'japanese', 'title': 'Japanese'}]","['delivery', 'pickup']","{'latitude': 40.752987, 'longitude': -73.983824}",10018,New York,NY,3
260,QObHX0yR6zd0WfksRDbJTA,Becco,2854,"[{'alias': 'italian', 'title': 'Italian'}]",[],"{'latitude': 40.76083, 'longitude': -73.98981}",10036,New York,NY,3
261,2Cqj13bxnvW83ctQp1prEA,ROYCE' Bryant Park,173,"[{'alias': 'desserts', 'title': 'Desserts'}, {'alias': 'candy', 'title': 'Candy Stores'}, {'alias': 'chocolate', 'title': 'Chocolatiers & Shops'}]","['delivery', 'pickup']","{'latitude': 40.75277, 'longitude': -73.98345}",10018,New York,NY,2
262,7cjT33LfYSk7vrRdEaSr4w,Angeletto Restaurant,203,"[{'alias': 'italian', 'title': 'Italian'}]","['restaurant_reservation', 'delivery', 'pickup']","{'latitude': 40.753188, 'longitude': -73.969365}",10017,New York,NY,2
263,S6r0P0PItA9EYHV1nCiQgg,Mysttik Masaala,373,"[{'alias': 'foodtrucks', 'title': 'Food Trucks'}, {'alias': 'indpak', 'title': 'Indian'}]",[],"{'latitude': 40.75932, 'longitude': -73.97209}",10022,New York,NY,1
264,TV40WN9C9MPPId8r1F1bcA,Magnolia Bakery Grand Central Terminal,647,"[{'alias': 'bakeries', 'title': 'Bakeries'}, {'alias': 'desserts', 'title': 'Desserts'}, {'alias': 'cupcakes', 'title': 'Cupcakes'}]",[],"{'latitude': 40.752574, 'longitude': -73.97678}",10017,New York,NY,2
265,be6NzaJ-t-zW4ml_WPddYA,RARE Bar & Grill,643,"[{'alias': 'burgers', 'title': 'Burgers'}, {'alias': 'breakfast_brunch', 'title': 'Breakfast & Brunch'}, {'alias': 'cocktailbars', 'title': 'Cocktail Bars'}]",[],"{'latitude': 40.7484183, 'longitude': -73.9780442}",10016,New York,NY,2
266,itH4GH2Mw2D5n5kkQAtMog,Abiko Curry,769,"[{'alias': 'japacurry', 'title': 'Japanese Curry'}, {'alias': 'noodles', 'title': 'Noodles'}, {'alias': 'beerbar', 'title': 'Beer Bar'}]","['delivery', 'pickup']","{'latitude': 40.7474259684723, 'longitude': -73.9862179359732}",10001,New York,NY,2
267,OLSSJIp8pu5UlugTF7tuHA,Ootoya Chelsea,1392,"[{'alias': 'japanese', 'title': 'Japanese'}, {'alias': 'sushi', 'title': 'Sushi Bars'}, {'alias': 'hotpot', 'title': 'Hot Pot'}]","['restaurant_reservation', 'pickup']","{'latitude': 40.738767, 'longitude': -73.992778}",10011,New York,NY,2
268,hk3ohp_A4L4UgWTexDxf_Q,Gallaghers Steakhouse,1173,"[{'alias': 'steak', 'title': 'Steakhouses'}, {'alias': 'seafood', 'title': 'Seafood'}, {'alias': 'tradamerican', 'title': 'American (Traditional)'}]",[],"{'latitude': 40.762876, 'longitude': -73.983837}",10019,New York,NY,3
269,lXGCo-K7eftxRT_6E59-Iw,Union Square Cafe,1211,"[{'alias': 'newamerican', 'title': 'American (New)'}, {'alias': 'cafes', 'title': 'Cafes'}, {'alias': 'bars', 'title': 'Bars'}]",[],"{'latitude': 40.73775, 'longitude': -73.987874}",10003,New York,NY,3
270,15R8rx9SHKNVYBwgAuTyGA,Sushi Ginza Onodera,183,"[{'alias': 'sushi', 'title': 'Sushi Bars'}, {'alias': 'japanese', 'title': 'Japanese'}]",[],"{'latitude': 40.7523399, 'longitude': -73.98151}",10017,New York,NY,4
271,OGO_ykdC27Fc-Q3Yhwjo4w,Ground Central,113,"[{'alias': 'coffee', 'title': 'Coffee & Tea'}, {'alias': 'bakeries', 'title': 'Bakeries'}, {'alias': 'sandwiches', 'title': 'Sandwiches'}]",[],"{'latitude': 40.75014, 'longitude': -73.97176}",10017,New York,NY,1
272,Xjswj531-FkRZPpcccU6kQ,Vida Verde,1109,"[{'alias': 'cocktailbars', 'title': 'Cocktail Bars'}, {'alias': 'mexican', 'title': 'Mexican'}, {'alias': 'venues', 'title': 'Venues & Event Spaces'}]",['pickup'],"{'latitude': 40.7650089, 'longitude': -73.983215}",10019,New York,NY,2
274,yi6jIxzHo-nbAOG4KWuqcw,Maialino,1384,"[{'alias': 'italian', 'title': 'Italian'}, {'alias': 'breakfast_brunch', 'title': 'Breakfast & Brunch'}, {'alias': 'bars', 'title': 'Bars'}]",[],"{'latitude': 40.738437, 'longitude': -73.985686}",10010,New York,NY,3
275,RYoc4EBUNOtgbg7c32OG9A,Atoboy,350,"[{'alias': 'korean', 'title': 'Korean'}, {'alias': 'tapasmallplates', 'title': 'Tapas/Small Plates'}, {'alias': 'asianfusion', 'title': 'Asian Fusion'}]",[],"{'latitude': 40.74364, 'longitude': -73.98456}",10016,New York,NY,3
276,7pvTicRAhXB1Ld74MWjkXQ,Davio's Northern Italian Steakhouse,291,"[{'alias': 'steak', 'title': 'Steakhouses'}, {'alias': 'italian', 'title': 'Italian'}, {'alias': 'gluten_free', 'title': 'Gluten-Free'}]","['delivery', 'pickup']","{'latitude': 40.75304, 'longitude': -73.97472}",10017,New York,NY,3
277,J9UA6rzI5WW_cDGjwDnF5g,Tsurutontan Udon Noodle Brasserie,1834,"[{'alias': 'japanese', 'title': 'Japanese'}, {'alias': 'noodles', 'title': 'Noodles'}, {'alias': 'soup', 'title': 'Soup'}]","['delivery', 'pickup']","{'latitude': 40.73678, 'longitude': -73.9910699}",10003,New York,NY,2
278,mU23NlQfn1R9OhA6WMe_xg,Breads Bakery,987,"[{'alias': 'bakeries', 'title': 'Bakeries'}, {'alias': 'cafes', 'title': 'Cafes'}]",['pickup'],"{'latitude': 40.73661, 'longitude': -73.99181}",10003,New York,NY,2
279,dS9rQ7SvIGngPE4y2xkSKw,Royal 35 Steakhouse,198,"[{'alias': 'steak', 'title': 'Steakhouses'}]",[],"{'latitude': 40.74897, 'longitude': -73.98348}",10016,New York,NY,4
280,y6XohzcYjUAQOD8U3NT_yw,The Stag's Head,428,"[{'alias': 'newamerican', 'title': 'American (New)'}, {'alias': 'beergardens', 'title': 'Beer Gardens'}]",[],"{'latitude': 40.755592, 'longitude': -73.968588}",10022,New York,NY,2
281,zOmgO8Di9Ui2bQHqSarUKg,John's of Times Square,2153,"[{'alias': 'pizza', 'title': 'Pizza'}]","['delivery', 'pickup']","{'latitude': 40.75823, 'longitude': -73.98836}",10036,New York,NY,2
282,4CObV3XU8VQ6nXeVS4vO0A,Margon,734,"[{'alias': 'cuban', 'title': 'Cuban'}, {'alias': 'sandwiches', 'title': 'Sandwiches'}]","['delivery', 'pickup']","{'latitude': 40.75787, 'longitude': -73.98398}",10036,New York,NY,2
283,f7apP8A_0_KqcGQTK4V2TQ,Aquavit,738,"[{'alias': 'scandinavian', 'title': 'Scandinavian'}]",[],"{'latitude': 40.76079, 'longitude': -73.97221}",10022,New York,NY,4
284,3Gz07E5YJjDTJPSuzsAStQ,Ocean Prime,572,"[{'alias': 'seafood', 'title': 'Seafood'}, {'alias': 'steak', 'title': 'Steakhouses'}, {'alias': 'newamerican', 'title': 'American (New)'}]",[],"{'latitude': 40.76173, 'longitude': -73.98063}",10019,New York,NY,3
285,qU3ejLMndurKQTkM01gutg,Zuma,641,"[{'alias': 'sushi', 'title': 'Sushi Bars'}, {'alias': 'japanese', 'title': 'Japanese'}]",[],"{'latitude': 40.7505268941072, 'longitude': -73.980782390213}",10016,New York,NY,4
286,xxE4sKeYJAuHdNm7WZlVOg,Banc Cafe,592,"[{'alias': 'cafes', 'title': 'Cafes'}, {'alias': 'cocktailbars', 'title': 'Cocktail Bars'}]","['delivery', 'pickup']","{'latitude': 40.7432632446289, 'longitude': -73.9795150756836}",10016,New York,NY,2
287,ExvoimQ4LzY3UWtZ6m6Lgw,Ravagh Persian Grill,768,"[{'alias': 'mideastern', 'title': 'Middle Eastern'}, {'alias': 'persian', 'title': 'Persian/Iranian'}, {'alias': 'mediterranean', 'title': 'Mediterranean'}]","['delivery', 'pickup']","{'latitude': 40.74564, 'longitude': -73.9855}",10016,New York,NY,2
288,veku2cg2qaV-7MxwhOMBmg,Judge Roy Bean Public House,741,"[{'alias': 'pubs', 'title': 'Pubs'}, {'alias': 'venues', 'title': 'Venues & Event Spaces'}, {'alias': 'tradamerican', 'title': 'American (Traditional)'}]","['delivery', 'pickup']","{'latitude': 40.7629158108786, 'longitude': -73.9761248066812}",10019,New York,NY,2
289,qCf1QN11Qdncpqb7PhuyVw,The Rag Trader & Bo Peep Cocktail and Highball Store,423,"[{'alias': 'bars', 'title': 'Bars'}, {'alias': 'tradamerican', 'title': 'American (Traditional)'}, {'alias': 'pianobars', 'title': 'Piano Bars'}]",[],"{'latitude': 40.75059, 'longitude': -73.98628}",10018,New York,NY,2
290,VnjcxOUuZAeJMiDIU-7hUQ,Churrascaria Plataforma,1357,"[{'alias': 'brazilian', 'title': 'Brazilian'}, {'alias': 'steak', 'title': 'Steakhouses'}]",[],"{'latitude': 40.76202, 'longitude': -73.98765}",10019,New York,NY,4
291,NMDrXW5_qnme1hcJrXNP9Q,The NoMad Bar,489,"[{'alias': 'cocktailbars', 'title': 'Cocktail Bars'}]",[],"{'latitude': 40.7449365409844, 'longitude': -73.9885197632294}",10001,New York,NY,3
292,FizBsTIAJwNrImIG1mPDcg,Barn Joo,1593,"[{'alias': 'korean', 'title': 'Korean'}, {'alias': 'bbq', 'title': 'Barbeque'}, {'alias': 'cocktailbars', 'title': 'Cocktail Bars'}]","['restaurant_reservation', 'delivery', 'pickup']","{'latitude': 40.73684, 'longitude': -73.99069}",10003,New York,NY,2
293,w3rPFqs3rE0-7BWfFP23iw,Delectica,242,"[{'alias': 'breakfast_brunch', 'title': 'Breakfast & Brunch'}, {'alias': 'cafes', 'title': 'Cafes'}, {'alias': 'sandwiches', 'title': 'Sandwiches'}]","['delivery', 'pickup']","{'latitude': 40.7478391, 'longitude': -73.9767603}",10016,New York,NY,2
294,FwygEW3PBBh9g4ELNLpS8w,Docks Oyster Bar and Seafood Grill,625,"[{'alias': 'seafood', 'title': 'Seafood'}, {'alias': 'bars', 'title': 'Bars'}]","['delivery', 'pickup']","{'latitude': 40.7495410989218, 'longitude': -73.9751169755325}",10017,New York,NY,3
295,l_RAv09V67j-Hm9dyZxWhw,Tomi Jazz,441,"[{'alias': 'japanese', 'title': 'Japanese'}, {'alias': 'jazzandblues', 'title': 'Jazz & Blues'}]",[],"{'latitude': 40.75725, 'longitude': -73.96774}",10022,New York,NY,2
296,b3fuuJzb0uQDtVD3Zxe2Qg,Sushi Ryusei,88,"[{'alias': 'sushi', 'title': 'Sushi Bars'}, {'alias': 'japanese', 'title': 'Japanese'}]","['delivery', 'pickup']","{'latitude': 40.74845, 'longitude': -73.97513}",10016,New York,NY,4
297,WGIkWEuB9mmt78zYhNT_MQ,Joe Coffee,243,"[{'alias': 'coffee', 'title': 'Coffee & Tea'}, {'alias': 'sandwiches', 'title': 'Sandwiches'}]",[],"{'latitude': 40.7529931503065, 'longitude': -73.9770462251307}",10017,New York,NY,2
298,E9NMNWvV70HV5gB369N0EA,Nerai,462,"[{'alias': 'greek', 'title': 'Greek'}, {'alias': 'seafood', 'title': 'Seafood'}, {'alias': 'mediterranean', 'title': 'Mediterranean'}]",[],"{'latitude': 40.7602, 'longitude': -73.97308}",10022,New York,NY,3
299,oLA02lMIfgvbYquvXzkARw,Lillie's Victorian Establishment,1442,"[{'alias': 'bars', 'title': 'Bars'}, {'alias': 'gastropubs', 'title': 'Gastropubs'}, {'alias': 'burgers', 'title': 'Burgers'}]",['pickup'],"{'latitude': 40.7614625, 'longitude': -73.9860519}",10019,New York,NY,2
300,Rgm8BwcoqfIVSl2QSEOhbQ,Craft,1009,"[{'alias': 'newamerican', 'title': 'American (New)'}]",[],"{'latitude': 40.73818, 'longitude': -73.98866}",10003,New York,NY,4
302,rn6SmSqAYx2kLFIAxytMMQ,Kajitsu,238,"[{'alias': 'japanese', 'title': 'Japanese'}, {'alias': 'vegetarian', 'title': 'Vegetarian'}, {'alias': 'vegan', 'title': 'Vegan'}]",[],"{'latitude': 40.7498614, 'longitude': -73.9777215}",10016,New York,NY,4
303,oBcqZs0CAZjsLuMB-mNJ6A,Sticky's Finger Joint,400,"[{'alias': 'hotdogs', 'title': 'Fast Food'}, {'alias': 'chickenshop', 'title': 'Chicken Shop'}, {'alias': 'tradamerican', 'title': 'American (Traditional)'}]","['delivery', 'pickup']","{'latitude': 40.74505, 'longitude': -73.97885}",10016,New York,NY,2
304,i34wlziIjT8lHgUN1o0ToQ,The Shakespeare,362,"[{'alias': 'pubs', 'title': 'Pubs'}, {'alias': 'british', 'title': 'British'}]","['delivery', 'pickup']","{'latitude': 40.7506062, 'longitude': -73.9801755}",10016,New York,NY,2
305,bVkjBJlAIwKAj9Aw1KVWjA,Dim Sum Palace,1231,"[{'alias': 'dimsum', 'title': 'Dim Sum'}, {'alias': 'cantonese', 'title': 'Cantonese'}]","['delivery', 'pickup']","{'latitude': 40.76015, 'longitude': -73.9893699}",10036,New York,NY,2
306,kIm0oeOaVfC9-2flLPVklA,Patrizia's Pizza and Pasta,573,"[{'alias': 'italian', 'title': 'Italian'}, {'alias': 'pizza', 'title': 'Pizza'}, {'alias': 'catering', 'title': 'Caterers'}]","['delivery', 'pickup']","{'latitude': 40.7398415, 'longitude': -73.9792862}",10016,New York,NY,2
307,xsQTIeq-WLkp4ParkTQpMQ,PizzArte,1083,"[{'alias': 'pizza', 'title': 'Pizza'}, {'alias': 'italian', 'title': 'Italian'}, {'alias': 'gluten_free', 'title': 'Gluten-Free'}]","['delivery', 'pickup', 'restaurant_reservation']","{'latitude': 40.7629335072372, 'longitude': -73.9776668697596}",10019,New York,NY,2
308,SxKvgnkMMZdhBJcxxKQnww,Nobu Fifty Seven,1189,"[{'alias': 'sushi', 'title': 'Sushi Bars'}, {'alias': 'japanese', 'title': 'Japanese'}, {'alias': 'asianfusion', 'title': 'Asian Fusion'}]",[],"{'latitude': 40.7636210840864, 'longitude': -73.9765048613641}",10019,New York,NY,4
309,V6xlMNLFTsxB4W0VVcRK_Q,230 Fifth Rooftop Bar,3587,"[{'alias': 'cocktailbars', 'title': 'Cocktail Bars'}]",[],"{'latitude': 40.7440395, 'longitude': -73.9881258}",10001,New York,NY,2
310,StpOKezaW-AyN2xA1EJKvw,Victor's Cafe,1468,"[{'alias': 'cuban', 'title': 'Cuban'}, {'alias': 'tapas', 'title': 'Tapas Bars'}, {'alias': 'lounges', 'title': 'Lounges'}]",['delivery'],"{'latitude': 40.7629499, 'longitude': -73.98403}",10019,New York,NY,3
311,KaBw8UEm8uZTV6YLsshYrQ,Pocha 32,1478,"[{'alias': 'bars', 'title': 'Bars'}, {'alias': 'korean', 'title': 'Korean'}]",[],"{'latitude': 40.747524574399, 'longitude': -73.9862626791}",10001,New York,NY,2
312,NlsxuhV6CUONOyI7xk7-mw,Hill Country Barbecue Market,2159,"[{'alias': 'bbq', 'title': 'Barbeque'}, {'alias': 'southern', 'title': 'Southern'}, {'alias': 'bars', 'title': 'Bars'}]","['delivery', 'pickup']","{'latitude': 40.74428, 'longitude': -73.99041}",10010,New York,NY,2
313,8XHbZIKDQbXhyKIGiukVeQ,Boucherie Union Square,717,"[{'alias': 'steak', 'title': 'Steakhouses'}, {'alias': 'french', 'title': 'French'}, {'alias': 'cocktailbars', 'title': 'Cocktail Bars'}]",['restaurant_reservation'],"{'latitude': 40.73715, 'longitude': -73.98789}",10003,New York,NY,3
314,2uVut84nu_1J1iXRoXRMiQ,2Beans,173,"[{'alias': 'coffee', 'title': 'Coffee & Tea'}, {'alias': 'wine_bars', 'title': 'Wine Bars'}, {'alias': 'chocolate', 'title': 'Chocolatiers & Shops'}]","['delivery', 'pickup']","{'latitude': 40.7511373, 'longitude': -73.978866}",10017,New York,NY,2
315,1-7C5Kv8B8PiIbfL3_uHlw,Restaurant Riki,359,"[{'alias': 'japanese', 'title': 'Japanese'}, {'alias': 'seafood', 'title': 'Seafood'}, {'alias': 'sushi', 'title': 'Sushi Bars'}]",[],"{'latitude': 40.7532844543457, 'longitude': -73.9738540649414}",10017,New York,NY,2
316,_tHF8-3rbyMesgdkQzB2yQ,Serendipity 3,4211,"[{'alias': 'desserts', 'title': 'Desserts'}, {'alias': 'newamerican', 'title': 'American (New)'}]",['restaurant_reservation'],"{'latitude': 40.761851, 'longitude': -73.9649001}",10022,New York,NY,2
317,yKQZqmCbk3EkGC5ajHgEGg,Amma,497,"[{'alias': 'indpak', 'title': 'Indian'}]","['delivery', 'pickup']","{'latitude': 40.75554, 'longitude': -73.96874}",10022,New York,NY,3
318,iAoHFfB_T8U31PhIzD-o_g,Mastro's Steakhouse,684,"[{'alias': 'steak', 'title': 'Steakhouses'}]",[],"{'latitude': 40.761105, 'longitude': -73.980164}",10019,New York,NY,4
319,CgYWuNH0UHd5vp2vGgKflw,wagamama - murray hill,249,"[{'alias': 'noodles', 'title': 'Noodles'}, {'alias': 'asianfusion', 'title': 'Asian Fusion'}]","['delivery', 'pickup']","{'latitude': 40.74909, 'longitude': -73.9754}",10158,New York,NY,2
320,XxLGYdB0s8IkZ9QZtGKBZA,Burger Joint,2305,"[{'alias': 'tradamerican', 'title': 'American (Traditional)'}, {'alias': 'burgers', 'title': 'Burgers'}]","['delivery', 'pickup']","{'latitude': 40.7642604687359, 'longitude': -73.978533363932}",10019,New York,NY,2
321,t0Bel7xLMUt5g8qIpBylZg,&pizza - Nomad,420,"[{'alias': 'pizza', 'title': 'Pizza'}]","['delivery', 'pickup']","{'latitude': 40.745306, 'longitude': -73.9880992}",10001,New York,NY,2
322,ZrdTKStTAo2pchslOev1KQ,Chennai Garden by Tiffin Wallah,780,"[{'alias': 'indpak', 'title': 'Indian'}, {'alias': 'vegetarian', 'title': 'Vegetarian'}]","['delivery', 'pickup']","{'latitude': 40.74298, 'longitude': -73.98274}",10016,New York,NY,2
323,pcb8yK9_28uWz5CyokjwSg,Bangia,376,"[{'alias': 'korean', 'title': 'Korean'}, {'alias': 'gastropubs', 'title': 'Gastropubs'}, {'alias': 'cocktailbars', 'title': 'Cocktail Bars'}]",['restaurant_reservation'],"{'latitude': 40.746854, 'longitude': -73.9845201}",10016,New York,NY,2
324,RcqZmRj3mWiimohFnNA4Nw,Milk Bar East Village,3317,"[{'alias': 'bakeries', 'title': 'Bakeries'}, {'alias': 'desserts', 'title': 'Desserts'}, {'alias': 'cakeshop', 'title': 'Patisserie/Cake Shop'}]",[],"{'latitude': 40.7318893900159, 'longitude': -73.9857388595245}",10003,New York,NY,2
325,TJCyocLYrUBfbf8r0DaBXw,Tacos Grand Central,196,"[{'alias': 'mexican', 'title': 'Mexican'}]","['delivery', 'pickup']","{'latitude': 40.75164, 'longitude': -73.97418}",10017,New York,NY,1
326,5QgBCrAbXbM1ORiqZDrBPQ,Cha-An,1779,"[{'alias': 'japanese', 'title': 'Japanese'}, {'alias': 'tea', 'title': 'Tea Rooms'}]",[],"{'latitude': 40.72947, 'longitude': -73.98813}",10003,New York,NY,2
327,UC3n_0vZ5zI1fvi7UzNZAg,Sabai Thai Restaurant,250,"[{'alias': 'thai', 'title': 'Thai'}, {'alias': 'vegetarian', 'title': 'Vegetarian'}]","['delivery', 'pickup']","{'latitude': 40.74422, 'longitude': -73.98365}",10016,New York,NY,2
328,VIIfYEzIppjps0K_J_8zLg,El Rio Grande,619,"[{'alias': 'mexican', 'title': 'Mexican'}, {'alias': 'bars', 'title': 'Bars'}, {'alias': 'tex-mex', 'title': 'Tex-Mex'}]","['delivery', 'pickup']","{'latitude': 40.748074661455, 'longitude': -73.976690081965}",10016,New York,NY,2
329,t_UObgQX6M_ZRn3tk2cXYQ,Let's Meat,995,"[{'alias': 'korean', 'title': 'Korean'}, {'alias': 'bbq', 'title': 'Barbeque'}]","['delivery', 'pickup', 'restaurant_reservation']","{'latitude': 40.746774, 'longitude': -73.985524}",10016,New York,NY,3
330,VpInBiE272MaN1Hi0DA-Zw,Sachi Asian Bistro,208,"[{'alias': 'asianfusion', 'title': 'Asian Fusion'}, {'alias': 'sushi', 'title': 'Sushi Bars'}]","['delivery', 'pickup']","{'latitude': 40.7478, 'longitude': -73.97406}",10016,New York,NY,2
331,X8yEmEDD9ZTkHoIRFqzcRw,Osamil,408,"[{'alias': 'korean', 'title': 'Korean'}, {'alias': 'gastropubs', 'title': 'Gastropubs'}, {'alias': 'tapasmallplates', 'title': 'Tapas/Small Plates'}]",[],"{'latitude': 40.74697, 'longitude': -73.9864}",10001,New York,NY,2
332,WLDxwPbjOlSkqRW9bS-Frg,Amorino Gelato,721,"[{'alias': 'gelato', 'title': 'Gelato'}, {'alias': 'desserts', 'title': 'Desserts'}, {'alias': 'coffee', 'title': 'Coffee & Tea'}]","['delivery', 'pickup']","{'latitude': 40.7595642, 'longitude': -73.9884984}",10036,New York,NY,2
333,Maks_EfVcTOe20TnGQy_MQ,The Capital Grille,753,"[{'alias': 'steak', 'title': 'Steakhouses'}, {'alias': 'seafood', 'title': 'Seafood'}, {'alias': 'wine_bars', 'title': 'Wine Bars'}]",[],"{'latitude': 40.7607390928484, 'longitude': -73.9813780866211}",10020,New York,NY,3
334,8O3tKwRgrNcXyvf_S8M2yQ,Gotan - Midtown,461,"[{'alias': 'cafes', 'title': 'Cafes'}, {'alias': 'breakfast_brunch', 'title': 'Breakfast & Brunch'}, {'alias': 'coffee', 'title': 'Coffee & Tea'}]","['delivery', 'pickup']","{'latitude': 40.7563301, 'longitude': -73.9803317}",10036,New York,NY,2
335,ONQRhDuWv0e9R5xOiI7YAA,Gyu-Kaku Japanese BBQ,1223,"[{'alias': 'japanese', 'title': 'Japanese'}, {'alias': 'bbq', 'title': 'Barbeque'}, {'alias': 'asianfusion', 'title': 'Asian Fusion'}]",[],"{'latitude': 40.75908, 'longitude': -73.98989}",10036,New York,NY,2
336,zwFS-FcGe062to_rWWkLCw,Bouchon Bakery,788,"[{'alias': 'bakeries', 'title': 'Bakeries'}, {'alias': 'sandwiches', 'title': 'Sandwiches'}, {'alias': 'french', 'title': 'French'}]","['delivery', 'pickup']","{'latitude': 40.7582232250109, 'longitude': -73.9788105906568}",10111,New York,NY,2
337,M2wnfA4K3DVwuAv0DCPTdQ,Covina,344,"[{'alias': 'mediterranean', 'title': 'Mediterranean'}, {'alias': 'newamerican', 'title': 'American (New)'}, {'alias': 'bars', 'title': 'Bars'}]",[],"{'latitude': 40.7423054, 'longitude': -73.9832149}",10016,New York,NY,3
338,3dZsX3mqbVsLEXPwMYKPsw,Zaika New York,132,"[{'alias': 'indpak', 'title': 'Indian'}]","['delivery', 'pickup']","{'latitude': 40.75135, 'longitude': -73.97209}",10017,New York,NY,2
339,26emJlm1YMFyOCezfgVk4g,Da Raffaele,162,"[{'alias': 'italian', 'title': 'Italian'}]",[],"{'latitude': 40.7535386913133, 'longitude': -73.9666010811925}",10022,New York,NY,2
340,0y6eQXDw2RDLuBwkY02xGA,Aretsky's Patroon,224,"[{'alias': 'tradamerican', 'title': 'American (Traditional)'}, {'alias': 'bars', 'title': 'Bars'}]",[],"{'latitude': 40.7533599, 'longitude': -73.9732416}",10017,New York,NY,3
341,wfGFM8zvdw9Zs-jxsTdjww,Soju Haus,547,"[{'alias': 'korean', 'title': 'Korean'}, {'alias': 'bars', 'title': 'Bars'}, {'alias': 'soup', 'title': 'Soup'}]",[],"{'latitude': 40.7468603, 'longitude': -73.9851724}",10016,New York,NY,2
342,Y95SZ-ancPj62E-q5OGmMQ,Dig Inn,407,"[{'alias': 'newamerican', 'title': 'American (New)'}]",[],"{'latitude': 40.7512672314928, 'longitude': -73.9802131576778}",10016,New York,NY,2
343,SQ7VgqfjItZyoD5tvMeWuA,Sprinkles New York - Upper East Side,980,"[{'alias': 'bakeries', 'title': 'Bakeries'}, {'alias': 'desserts', 'title': 'Desserts'}, {'alias': 'cupcakes', 'title': 'Cupcakes'}]",[],"{'latitude': 40.763251, 'longitude': -73.967564}",10065,New York,NY,2
344,xJSH3EM1iZtOh4WZti4qjg,Wafels & Dinges,1531,"[{'alias': 'waffles', 'title': 'Waffles'}, {'alias': 'foodtrucks', 'title': 'Food Trucks'}, {'alias': 'icecream', 'title': 'Ice Cream & Frozen Yogurt'}]","['delivery', 'pickup']","{'latitude': 40.7392845153809, 'longitude': -73.9989318847656}",10011,New York,NY,1
345,U0deo-JRQmHrru0uSf6QWA,Virgil's Real BBQ - New York,1598,"[{'alias': 'bbq', 'title': 'Barbeque'}, {'alias': 'venues', 'title': 'Venues & Event Spaces'}, {'alias': 'tradamerican', 'title': 'American (Traditional)'}]","['delivery', 'pickup']","{'latitude': 40.75685, 'longitude': -73.9851}",10036,New York,NY,2
346,FKzpfWUpyupl4q74Jt8fTA,Don Antonio,1419,"[{'alias': 'pizza', 'title': 'Pizza'}, {'alias': 'italian', 'title': 'Italian'}, {'alias': 'cocktailbars', 'title': 'Cocktail Bars'}]","['delivery', 'pickup']","{'latitude': 40.762711, 'longitude': -73.986708}",10019,New York,NY,2
347,PuiSQqVdC38FhwXtWOPJzw,251 Ginza Sushi,223,"[{'alias': 'sushi', 'title': 'Sushi Bars'}, {'alias': 'japanese', 'title': 'Japanese'}]","['delivery', 'pickup']","{'latitude': 40.745938977155, 'longitude': -73.975854889858}",10016,New York,NY,2
348,8tcFpd0dcmfzbLgbTO4tdw,Sen Sakana,278,"[{'alias': 'sushi', 'title': 'Sushi Bars'}, {'alias': 'japanese', 'title': 'Japanese'}, {'alias': 'peruvian', 'title': 'Peruvian'}]","['delivery', 'pickup']","{'latitude': 40.75533, 'longitude': -73.9815}",10036,New York,NY,3
349,4nohlTsGHEDdpwYkRTt-fA,Rudy's Bar & Grill,1095,"[{'alias': 'divebars', 'title': 'Dive Bars'}, {'alias': 'hotdog', 'title': 'Hot Dogs'}]",[],"{'latitude': 40.76004, 'longitude': -73.99182}",10036,New York,NY,1
350,GxqEVZUgz8xophUos_V3eQ,The Breslin,1577,"[{'alias': 'gastropubs', 'title': 'Gastropubs'}, {'alias': 'breakfast_brunch', 'title': 'Breakfast & Brunch'}, {'alias': 'steak', 'title': 'Steakhouses'}]",[],"{'latitude': 40.7457012, 'longitude': -73.9878543}",10001,New York,NY,3
351,l7G5tDA96xbA_bx1ZgkOeg,ICHIRAN Midtown,782,"[{'alias': 'ramen', 'title': 'Ramen'}, {'alias': 'noodles', 'title': 'Noodles'}, {'alias': 'soup', 'title': 'Soup'}]",[],"{'latitude': 40.74839, 'longitude': -73.99062}",10001,New York,NY,2
353,UBCNhz-TSvBP3zo5PjFWrQ,Aureole,897,"[{'alias': 'newamerican', 'title': 'American (New)'}]",[],"{'latitude': 40.7555870079476, 'longitude': -73.9852531626821}",10036,New York,NY,3
354,2_oy2iBeT0Rg-oz4f0GF1A,The Jeffrey Craft Beer & Bites,668,"[{'alias': 'bars', 'title': 'Bars'}, {'alias': 'newamerican', 'title': 'American (New)'}, {'alias': 'coffee', 'title': 'Coffee & Tea'}]","['delivery', 'pickup']","{'latitude': 40.7611, 'longitude': -73.963}",10022,New York,NY,2
355,lXzK0i9VnocLzPFwmEQ8Aw,Garlic New York Pizza Bar,419,"[{'alias': 'italian', 'title': 'Italian'}, {'alias': 'pizza', 'title': 'Pizza'}]","['delivery', 'pickup']","{'latitude': 40.74514, 'longitude': -73.97584}",10016,New York,NY,1
356,ya8HC5_97zGt3wNPWNNENA,Food Gallery 32,818,"[{'alias': 'food_court', 'title': 'Food Court'}]",[],"{'latitude': 40.74761, 'longitude': -73.98631}",10001,New York,NY,1
357,IBgjj5VBu5JJvKgo9EzKrg,The Three Monkeys,1152,"[{'alias': 'sportsbars', 'title': 'Sports Bars'}, {'alias': 'beergardens', 'title': 'Beer Gardens'}, {'alias': 'beerbar', 'title': 'Beer Bar'}]",[],"{'latitude': 40.764164, 'longitude': -73.98306}",10019,New York,NY,2
358,scjoZtbTQHi35xhAlUm2iQ,L'ADRESSE,601,"[{'alias': 'newamerican', 'title': 'American (New)'}, {'alias': 'breakfast_brunch', 'title': 'Breakfast & Brunch'}, {'alias': 'desserts', 'title': 'Desserts'}]",['restaurant_reservation'],"{'latitude': 40.75403, 'longitude': -73.98539}",10018,New York,NY,2
359,pPdGUL90xZ7YIUvTLYcmIw,The Comfort Diner,562,"[{'alias': 'diners', 'title': 'Diners'}, {'alias': 'breakfast_brunch', 'title': 'Breakfast & Brunch'}]","['delivery', 'pickup']","{'latitude': 40.75228, 'longitude': -73.97233}",10017,New York,NY,2
360,ISxL2HWJNCazHAdy5oblJA,Coney Shack,290,"[{'alias': 'foodtrucks', 'title': 'Food Trucks'}, {'alias': 'mexican', 'title': 'Mexican'}]",[],"{'latitude': 40.75659, 'longitude': -73.98589}",10036,New York,NY,1
361,REDWyPG0UJc5u8iU8mP6Hw,Rocco Steakhouse,342,"[{'alias': 'tradamerican', 'title': 'American (Traditional)'}, {'alias': 'steak', 'title': 'Steakhouses'}, {'alias': 'seafood', 'title': 'Seafood'}]","['delivery', 'pickup']","{'latitude': 40.7438607, 'longitude': -73.9861214}",10016,New York,NY,3
362,D13m2P0qKQUWNqIW-lpHZg,Yaso Noodle Bar,244,"[{'alias': 'shanghainese', 'title': 'Shanghainese'}, {'alias': 'noodles', 'title': 'Noodles'}]","['delivery', 'pickup']","{'latitude': 40.74998, 'longitude': -73.973}",10017,New York,NY,2
363,x2OI4M2QJOo3Ymf8YHBhdw,La Maison du Macaron,874,"[{'alias': 'macarons', 'title': 'Macarons'}, {'alias': 'coffee', 'title': 'Coffee & Tea'}]",[],"{'latitude': 40.74318, 'longitude': -73.99419}",10011,New York,NY,2
364,L-0kBMMibv1iZbbz-uPv3g,Roti Modern Mediterranean,221,"[{'alias': 'mediterranean', 'title': 'Mediterranean'}, {'alias': 'sandwiches', 'title': 'Sandwiches'}, {'alias': 'salad', 'title': 'Salad'}]","['delivery', 'pickup']","{'latitude': 40.7515315, 'longitude': -73.9745342}",10017,New York,NY,2
365,1hScmfYV42XshcprL79MAQ,Peter Dillon's,204,"[{'alias': 'irish_pubs', 'title': 'Irish Pub'}, {'alias': 'beerbar', 'title': 'Beer Bar'}]",[],"{'latitude': 40.749947565026, 'longitude': -73.976572493217}",10016,New York,NY,1
366,qIOAlXCCYrwN0VxEEH-Tmw,Boqueria Flatiron,1238,"[{'alias': 'spanish', 'title': 'Spanish'}, {'alias': 'tapas', 'title': 'Tapas Bars'}, {'alias': 'wine_bars', 'title': 'Wine Bars'}]","['delivery', 'pickup']","{'latitude': 40.7402927726298, 'longitude': -73.9940709810079}",10011,New York,NY,3
367,dc3hkLkAqCSxDWQzrx-g9A,Quality Italian,1062,"[{'alias': 'italian', 'title': 'Italian'}, {'alias': 'steak', 'title': 'Steakhouses'}]",[],"{'latitude': 40.7644044527436, 'longitude': -73.9767805051616}",10019,New York,NY,3
368,nd0uXNXaeaDMuMk4C1GusA,Bukhara Grill,547,"[{'alias': 'indpak', 'title': 'Indian'}, {'alias': 'buffets', 'title': 'Buffets'}, {'alias': 'vegetarian', 'title': 'Vegetarian'}]","['delivery', 'pickup']","{'latitude': 40.75501, 'longitude': -73.97028}",10017,New York,NY,2
369,pGr5QuQU7Ur5GHLvXbT8bw,Paulie Gee's,1231,"[{'alias': 'pizza', 'title': 'Pizza'}, {'alias': 'vegan', 'title': 'Vegan'}, {'alias': 'italian', 'title': 'Italian'}]",[],"{'latitude': 40.729546, 'longitude': -73.958568}",11222,Brooklyn,NY,2
370,x2ATnp8-hXFhr_XznPYPMw,5 Napkin Burger,2062,"[{'alias': 'burgers', 'title': 'Burgers'}]","['delivery', 'pickup']","{'latitude': 40.76018, 'longitude': -73.991093}",10036,New York,NY,2
372,5YV3zSR18X4Ja6d-TOEtyA,Pino Wine Bar,155,"[{'alias': 'wine_bars', 'title': 'Wine Bars'}, {'alias': 'tradamerican', 'title': 'American (Traditional)'}, {'alias': 'breakfast_brunch', 'title': 'Breakfast & Brunch'}]",[],"{'latitude': 40.74525, 'longitude': -73.97937}",10016,New York,NY,2
373,-Td-YEPTOUq2H3LRWgRxUw,Non Solo Piada,338,"[{'alias': 'italian', 'title': 'Italian'}, {'alias': 'breakfast_brunch', 'title': 'Breakfast & Brunch'}, {'alias': 'piadina', 'title': 'Piadina'}]","['delivery', 'pickup']","{'latitude': 40.75414, 'longitude': -73.99245}",10018,New York,NY,2
374,SLrIiJMqIOdN5KNYpinINQ,Paris Baguette,702,"[{'alias': 'bakeries', 'title': 'Bakeries'}, {'alias': 'coffee', 'title': 'Coffee & Tea'}, {'alias': 'cakeshop', 'title': 'Patisserie/Cake Shop'}]",[],"{'latitude': 40.74738, 'longitude': -73.98627}",10001,New York,NY,2
375,YC-wGlO0oOkEIaCEDZv-ag,Yakitori Totto,1303,"[{'alias': 'japanese', 'title': 'Japanese'}]",[],"{'latitude': 40.765375, 'longitude': -73.983114}",10019,New York,NY,3
376,Z65cd3Z7JvwK8TnSVg-cfA,District Tap House,825,"[{'alias': 'sportsbars', 'title': 'Sports Bars'}, {'alias': 'pubs', 'title': 'Pubs'}, {'alias': 'newamerican', 'title': 'American (New)'}]",[],"{'latitude': 40.75409, 'longitude': -73.99039}",10018,New York,NY,2
377,3LZhWUqvEMaoc1vnAkmAlQ,Socarrat Paella Bar - Midtown East,481,"[{'alias': 'spanish', 'title': 'Spanish'}, {'alias': 'tapasmallplates', 'title': 'Tapas/Small Plates'}, {'alias': 'wine_bars', 'title': 'Wine Bars'}]","['delivery', 'pickup']","{'latitude': 40.755293, 'longitude': -73.968462}",10022,New York,NY,3
378,-jYxfK6Q1k84uUCag83Fqg,Num Pang Kitchen,1400,"[{'alias': 'cambodian', 'title': 'Cambodian'}, {'alias': 'sandwiches', 'title': 'Sandwiches'}]","['delivery', 'pickup']","{'latitude': 40.73396, 'longitude': -73.99312}",10003,New York,NY,2
379,mIhqKMgru4002wfrVW-Gfw,ChikaLicious Dessert Bar,1315,"[{'alias': 'desserts', 'title': 'Desserts'}, {'alias': 'coffee', 'title': 'Coffee & Tea'}, {'alias': 'wine_bars', 'title': 'Wine Bars'}]",[],"{'latitude': 40.729664, 'longitude': -73.98631817}",10003,New York,NY,2
380,NTwOc9yQ1xl5deeVzZqxfw,Tavern29,903,"[{'alias': 'pubs', 'title': 'Pubs'}, {'alias': 'newamerican', 'title': 'American (New)'}]","['delivery', 'pickup']","{'latitude': 40.74431, 'longitude': -73.98394}",10016,New York,NY,2
381,1_pK5aQ47atF50oAKHADhA,Indian Accent,565,"[{'alias': 'indpak', 'title': 'Indian'}]",[],"{'latitude': 40.7643344624229, 'longitude': -73.9787312885132}",10019,New York,NY,4
382,oc8J6lk1Mfa-8RIwQ4NDgw,Pokeworks,211,"[{'alias': 'poke', 'title': 'Poke'}, {'alias': 'salad', 'title': 'Salad'}, {'alias': 'sushi', 'title': 'Sushi Bars'}]","['delivery', 'pickup']","{'latitude': 40.75099, 'longitude': -73.97679}",10168,New York,NY,2
383,qYqe-kArMUebiEvxUPUlVg,The Picnic Basket,442,"[{'alias': 'cafes', 'title': 'Cafes'}, {'alias': 'sandwiches', 'title': 'Sandwiches'}, {'alias': 'breakfast_brunch', 'title': 'Breakfast & Brunch'}]","['delivery', 'pickup']","{'latitude': 40.7516246, 'longitude': -73.9858858}",10018,New York,NY,2
384,eIPiRkf6KCo9A9Ok-Nr_ow,Miss KOREA BBQ,1679,"[{'alias': 'korean', 'title': 'Korean'}, {'alias': 'bbq', 'title': 'Barbeque'}]","['delivery', 'restaurant_reservation', 'pickup']","{'latitude': 40.747452, 'longitude': -73.986336}",10001,New York,NY,2
385,2MuvmwOuwvGOWkBimhniLA,La Bellezza,268,"[{'alias': 'pizza', 'title': 'Pizza'}]","['delivery', 'pickup']","{'latitude': 40.7557792663574, 'longitude': -73.9720153808594}",10017,New York,NY,1
386,OoKFeOTy9eJTrZ5KyNX0Mg,Spot Dessert Bar,708,"[{'alias': 'desserts', 'title': 'Desserts'}, {'alias': 'tapas', 'title': 'Tapas Bars'}, {'alias': 'coffee', 'title': 'Coffee & Tea'}]","['delivery', 'pickup']","{'latitude': 40.74761, 'longitude': -73.98631}",10001,New York,NY,2
387,YuzOnNDfRKixNJiaVy5Baw,Roberta's Pizza,212,"[{'alias': 'pizza', 'title': 'Pizza'}]",['pickup'],"{'latitude': 40.7545170712701, 'longitude': -73.9765970005763}",10169,New York,NY,2
388,0ePn6TQSJQky4ueKeGQvpQ,SUGARFISH by sushi nozawa,807,"[{'alias': 'sushi', 'title': 'Sushi Bars'}]",[],"{'latitude': 40.73901, 'longitude': -73.98882}",10003,New York,NY,3
389,tK_GcVOTG1_MjsepLMB6dg,Maloney & Porcelli,466,"[{'alias': 'tradamerican', 'title': 'American (Traditional)'}, {'alias': 'steak', 'title': 'Steakhouses'}]","['delivery', 'pickup']","{'latitude': 40.7576, 'longitude': -73.9747}",10022,New York,NY,3
390,V3Su_F-I09Jm5p1HlI0FXg,Scotty's Diner,400,"[{'alias': 'diners', 'title': 'Diners'}, {'alias': 'breakfast_brunch', 'title': 'Breakfast & Brunch'}]","['delivery', 'pickup']","{'latitude': 40.749771, 'longitude': -73.977551}",10016,New York,NY,2
391,zn4PW7NVdgCvg7vxVXQ_Qg,PS 450,1040,"[{'alias': 'newamerican', 'title': 'American (New)'}, {'alias': 'lounges', 'title': 'Lounges'}, {'alias': 'venues', 'title': 'Venues & Event Spaces'}]","['delivery', 'pickup']","{'latitude': 40.74497, 'longitude': -73.98312}",10016,New York,NY,2
392,rpVX-o82EEOX8ZDnM28a_Q,Bistango,268,"[{'alias': 'italian', 'title': 'Italian'}, {'alias': 'gluten_free', 'title': 'Gluten-Free'}, {'alias': 'cocktailbars', 'title': 'Cocktail Bars'}]","['delivery', 'pickup']","{'latitude': 40.75628, 'longitude': -73.97144}",10022,New York,NY,2
393,k7n_31GE1Yq1KD77_DO1Tw,Chick-fil-A,578,"[{'alias': 'hotdogs', 'title': 'Fast Food'}]","['delivery', 'pickup']","{'latitude': 40.751726, 'longitude': -73.9860817}",10018,New York,NY,1
394,p3E_1wktqB-Z4qtqqO9F-A,Terri,854,"[{'alias': 'sandwiches', 'title': 'Sandwiches'}, {'alias': 'juicebars', 'title': 'Juice Bars & Smoothies'}, {'alias': 'vegan', 'title': 'Vegan'}]","['delivery', 'pickup']","{'latitude': 40.74252, 'longitude': -73.9923}",10010,New York,NY,2
395,7j6CGUCw93gEsYqSetCstw,Nomado 33,384,"[{'alias': 'japanese', 'title': 'Japanese'}, {'alias': 'sushi', 'title': 'Sushi Bars'}]","['delivery', 'pickup', 'restaurant_reservation']","{'latitude': 40.7454228440467, 'longitude': -73.9791435317613}",10016,New York,NY,2
396,GAvyDral555vltKrupUcjw,Osteria Laguna,337,"[{'alias': 'italian', 'title': 'Italian'}, {'alias': 'desserts', 'title': 'Desserts'}, {'alias': 'wine_bars', 'title': 'Wine Bars'}]","['delivery', 'pickup']","{'latitude': 40.750647, 'longitude': -73.9737998}",10017,New York,NY,2
397,xWLSJOiN1mMRHmBmHyjAfw,Mad Dog & Beans Mexican Cantina,460,"[{'alias': 'mexican', 'title': 'Mexican'}]","['delivery', 'pickup', 'restaurant_reservation']","{'latitude': 40.75098, 'longitude': -73.98181}",10016,New York,NY,2
399,D6ZEcG1FCZ18nekMWrhgMg,Wokuni,215,"[{'alias': 'japanese', 'title': 'Japanese'}, {'alias': 'seafood', 'title': 'Seafood'}]",[],"{'latitude': 40.7492189, 'longitude': -73.9773529}",10016,New York,NY,3
400,844H9r0tRQZmxiEtjeTW0A,The Bar Room,496,"[{'alias': 'lounges', 'title': 'Lounges'}, {'alias': 'french', 'title': 'French'}, {'alias': 'newamerican', 'title': 'American (New)'}]",[],"{'latitude': 40.7610309319265, 'longitude': -73.9765593703613}",10019,New York,NY,3
401,NRcffNvufYo2Jul0h24_qw,Bryant Park Grill,909,"[{'alias': 'bars', 'title': 'Bars'}, {'alias': 'tradamerican', 'title': 'American (Traditional)'}, {'alias': 'venues', 'title': 'Venues & Event Spaces'}]",[],"{'latitude': 40.75319, 'longitude': -73.98298}",10018,New York,NY,3
402,h881bFbXCIZdI99-mPOoyA,Cup & Cup,335,"[{'alias': 'coffee', 'title': 'Coffee & Tea'}, {'alias': 'korean', 'title': 'Korean'}, {'alias': 'asianfusion', 'title': 'Asian Fusion'}]","['delivery', 'pickup']","{'latitude': 40.746245, 'longitude': -73.984846}",10016,New York,NY,1
403,mi3r8tPY-nHGfsl-9BGmBw,Sushi By Boū - NoMad,150,"[{'alias': 'sushi', 'title': 'Sushi Bars'}]",['restaurant_reservation'],"{'latitude': 40.746042, 'longitude': -73.983454}",10016,New York,NY,3
404,51YLgpfHKfXxOkDFe9sT-w,Balade - Your Way,347,"[{'alias': 'lebanese', 'title': 'Lebanese'}, {'alias': 'mediterranean', 'title': 'Mediterranean'}, {'alias': 'halal', 'title': 'Halal'}]","['delivery', 'pickup']","{'latitude': 40.7524299621582, 'longitude': -73.9887237548828}",10018,New York,NY,2
405,icpLRhJ1jpBX1zBGkt7Xqg,Teppen Ramen,397,"[{'alias': 'ramen', 'title': 'Ramen'}]","['pickup', 'delivery']","{'latitude': 40.75929, 'longitude': -73.96879}",10022,New York,NY,2
406,rtGTCIPxmnf41DUYGfaCTg,Bap,122,"[{'alias': 'poke', 'title': 'Poke'}, {'alias': 'korean', 'title': 'Korean'}, {'alias': 'bbq', 'title': 'Barbeque'}]","['delivery', 'pickup', 'restaurant_reservation']","{'latitude': 40.74618, 'longitude': -73.97802}",10016,New York,NY,2
407,06tnwnEQM2j9A6dC3HC_TQ,Capizzi,807,"[{'alias': 'pizza', 'title': 'Pizza'}]","['delivery', 'pickup']","{'latitude': 40.75744, 'longitude': -73.99357}",10018,New York,NY,2
408,qUOxvK1j0F293sZk5PdSBg,Antico Noe,180,"[{'alias': 'sandwiches', 'title': 'Sandwiches'}, {'alias': 'italian', 'title': 'Italian'}, {'alias': 'breakfast_brunch', 'title': 'Breakfast & Brunch'}]","['delivery', 'pickup']","{'latitude': 40.75716, 'longitude': -73.96864}",10022,New York,NY,2
409,2V_KAoQjjnmbnLJwMNEnLg,ROYCE' Madison,221,"[{'alias': 'chocolate', 'title': 'Chocolatiers & Shops'}, {'alias': 'desserts', 'title': 'Desserts'}, {'alias': 'candy', 'title': 'Candy Stores'}]","['delivery', 'pickup']","{'latitude': 40.75948, 'longitude': -73.97422}",10022,New York,NY,3
410,28CNHYULci66pJAz-0_pOg,Cote,852,"[{'alias': 'korean', 'title': 'Korean'}, {'alias': 'steak', 'title': 'Steakhouses'}, {'alias': 'cocktailbars', 'title': 'Cocktail Bars'}]",[],"{'latitude': 40.741192, 'longitude': -73.991314}",10010,New York,NY,3
411,FON3TceJNsTC0I0mzBwOKg,Fig & Olive - Fifth Ave,1162,"[{'alias': 'mediterranean', 'title': 'Mediterranean'}, {'alias': 'french', 'title': 'French'}, {'alias': 'bars', 'title': 'Bars'}]","['delivery', 'pickup']","{'latitude': 40.7594108995958, 'longitude': -73.9755487419944}",10022,New York,NY,3
412,hlJnwmsxFQ9uB3JtRwJQJg,Agern,200,"[{'alias': 'scandinavian', 'title': 'Scandinavian'}, {'alias': 'bars', 'title': 'Bars'}]",['restaurant_reservation'],"{'latitude': 40.7525286099337, 'longitude': -73.9780961338684}",10017,New York,NY,4
413,WqjqHMozyW42XLTtLnKGag,La Pulperia Hell's Kitchen,780,"[{'alias': 'latin', 'title': 'Latin American'}, {'alias': 'seafood', 'title': 'Seafood'}, {'alias': 'bars', 'title': 'Bars'}]","['pickup', 'restaurant_reservation']","{'latitude': 40.7609037798437, 'longitude': -73.9905203491259}",10036,New York,NY,3
414,na-2_gQCY7ccS2ZkLJDumQ,Waldy's Wood Fired Pizza & Penne,816,"[{'alias': 'pizza', 'title': 'Pizza'}, {'alias': 'italian', 'title': 'Italian'}]","['delivery', 'pickup']","{'latitude': 40.7457666039821, 'longitude': -73.9906402533629}",10001,New York,NY,1
415,UgTfFaQ_NAyne5OwLtTpXQ,Bagels & Schmear,492,"[{'alias': 'bagels', 'title': 'Bagels'}, {'alias': 'bakeries', 'title': 'Bakeries'},